[
  {
    "additional_info": null,
    "area": "ARDNAMURCHAN",
    "last_updated_date": null,
    "locations": [
      {
        "id": 14,
        "latitude": 56.68855,
        "longitude": -6.09396,
        "name": "Kilchoan",
        "weather": null
      },
      {
        "id": 13,
        "latitude": 56.6233,
        "longitude": -6.06334,
        "name": "Tobermory",
        "weather": null
      }
    ],
    "operator": {
      "email": "enquiries@calmac.co.uk",
      "facebook": "https://www.facebook.com/calmacferries",
      "id": 1,
      "international_number": "+44 1475 650 397",
      "local_number": "0800 066 5000",
      "name": "Caledonian MacBrayne",
      "website": "https://calmac.co.uk/",
      "x": "https://x.com/calmacferries"
    },
    "route": "Tobermory (TOB) - Kilchoan (KIC)",
    "service_id": 14,
    "sort_order": 1,
    "status": -99,
    "updated": null,
    "vessels": [],
    "disruption_reason": null
  },
  {
    "additional_info": null,
    "area": "ARRAN",
    "last_updated_date": null,
    "locations": [
      {
        "id": 4,
        "latitude": 55.576606,
        "longitude": -5.139172,
        "name": "Brodick",
        "weather": null
      },
      {
        "id": 3,
        "latitude": 55.640516,
        "longitude": -4.823062,
        "name": "Ardrossan",
        "weather": null
      }
    ],
    "operator": {
      "email": "enquiries@calmac.co.uk",
      "facebook": "https://www.facebook.com/calmacferries",
      "id": 1,
      "international_number": "+44 1475 650 397",
      "local_number": "0800 066 5000",
      "name": "Caledonian MacBrayne",
      "website": "https://calmac.co.uk/",
      "x": "https://x.com/calmacferries"
    },
    "route": "Ardrossan (ARD) - Brodick (BRO)",
    "service_id": 5,
    "sort_order": 2,
    "status": -99,
    "updated": null,
    "vessels": [],
    "disruption_reason": null
  },
  {
    "additional_info": null,
    "area": "ARRAN",
    "last_updated_date": null,
    "locations": [
      {
        "id": 52,
        "latitude": 55.75106,
        "longitude": -5.38787,
        "name": "Claonaig",
        "weather": null
      },
      {
        "id": 16,
        "latitude": 55.707714,
        "longitude": -5.301985,
        "name": "Lochranza",
        "weather": null
      },
      {
        "id": 15,
        "latitude": 55.86615,
        "longitude": -5.40376,
        "name": "Tarbert (Loch Fyne)",
        "weather": null
      }
    ],
    "operator": {
      "email": "enquiries@calmac.co.uk",
      "facebook": "https://www.facebook.com/calmacferries",
      "id": 1,
      "international_number": "+44 1475 650 397",
      "local_number": "0800 066 5000",
      "name": "Caledonian MacBrayne",
      "website": "https://calmac.co.uk/",
      "x": "https://x.com/calmacferries"
    },
    "route": "Claonaig (CLA) - Lochranza (LRA)",
    "service_id": 6,
    "sort_order": 3,
    "status": -99,
    "updated": null,
    "vessels": [],
    "disruption_reason": null
  },
  {
    "additional_info": null,
    "area": "BARRA ",
    "last_updated_date": null,
    "locations": [
      {
        "id": 21,
        "latitude": 57.152201,
        "longitude": -7.303969,
        "name": "Lochboisdale",
        "weather": null
      },
      {
        "id": 20,
        "latitude": 56.953846,
        "longitude": -7.488251,
        "name": "Castlebay",
        "weather": null
      },
      {
        "id": 19,
        "latitude": 56.41158,
        "longitude": -5.47725,
        "name": "Oban",
        "weather": null
      }
    ],
    "operator": {
      "email": "enquiries@calmac.co.uk",
      "facebook": "https://www.facebook.com/calmacferries",
      "id": 1,
      "international_number": "+44 1475 650 397",
      "local_number": "0800 066 5000",
      "name": "Caledonian MacBrayne",
      "website": "https://calmac.co.uk/",
      "x": "https://x.com/calmacferries"
    },
    "route": "Oban (OBA) - Castlebay (CAS)",
    "service_id": 20,
    "sort_order": 4,
    "status": -99,
    "updated": null,
    "vessels": [],
    "disruption_reason": null
  },
  {
    "additional_info": null,
    "area": "BARRA and ERISKAY",
    "last_updated_date": null,
    "locations": [
      {
        "id": 18,
        "latitude": 57.07091,
        "longitude": -7.30825,
        "name": "Eriskay",
        "weather": null
      },
      {
        "id": 17,
        "latitude": 57.0084,
        "longitude": -7.40475,
        "name": "Barra",
        "weather": null
      }
    ],
    "operator": {
      "email": "enquiries@calmac.co.uk",
      "facebook": "https://www.facebook.com/calmacferries",
      "id": 1,
      "international_number": "+44 1475 650 397",
      "local_number": "0800 066 5000",
      "name": "Caledonian MacBrayne",
      "website": "https://calmac.co.uk/",
      "x": "https://x.com/calmacferries"
    },
    "route": "Ardmhor, Barra (AMH) - Eriskay (ERI)",
    "service_id": 21,
    "sort_order": 5,
    "status": -99,
    "updated": null,
    "vessels": [],
    "disruption_reason": null
  },
  {
    "area": "BLUEMULL SOUND",
    "locations": [
      {
        "id": 68,
        "latitude": 60.62920742111861,
        "longitude": -0.931458525094521,
        "name": "Hamars Ness",
        "weather": null
      },
      {
        "id": 67,
        "latitude": 60.683245697249724,
        "longitude": -0.966809460926674,
        "name": "Belmont",
        "weather": null
      },
      {
        "id": 66,
        "latitude": 60.67302336320226,
        "longitude": -0.9964222948573699,
        "name": "Gutcher",
        "weather": null
      }
    ],
    "operator": {
      "email": "ferries@shetland.gov.uk",
      "facebook": "https://www.facebook.com/ShetlandIslandsCouncil/",
      "id": 4,
      "local_number": "01806 244200",
      "name": "Shetland Ferries",
      "website": "https://www.shetland.gov.uk/ferries",
      "x": "https://twitter.com/ShetIslandsCll"
    },
    "route": "Gutcher - Belmont - Hamars Ness",
    "service_id": 3000,
    "sort_order": 6,
    "status": -99,
    "updated": null,
    "vessels": [],
    "additional_info": null,
    "disruption_reason": null,
    "last_updated_date": null
  },
  {
    "area": "BRESSAY",
    "locations": [
      {
        "id": 72,
        "latitude": 60.15720064370729,
        "longitude": -1.1232174110338675,
        "name": "Bressay",
        "weather": null
      },
      {
        "id": 71,
        "latitude": 60.15592026531444,
        "longitude": -1.1427881939348081,
        "name": "Lerwick",
        "weather": null
      }
    ],
    "operator": {
      "email": "ferries@shetland.gov.uk",
      "facebook": "https://www.facebook.com/ShetlandIslandsCouncil/",
      "id": 4,
      "local_number": "01806 244200",
      "name": "Shetland Ferries",
      "website": "https://www.shetland.gov.uk/ferries",
      "x": "https://twitter.com/ShetIslandsCll"
    },
    "route": "Lerwick - Bressay",
    "service_id": 3002,
    "sort_order": 7,
    "status": -99,
    "updated": null,
    "vessels": [],
    "additional_info": null,
    "disruption_reason": null,
    "last_updated_date": null
  },
  {
    "additional_info": null,
    "area": "BUTE",
    "last_updated_date": null,
    "locations": [
      {
        "id": 23,
        "latitude": 55.92067,
        "longitude": -5.15888,
        "name": "Rhubodach",
        "weather": null
      },
      {
        "id": 22,
        "latitude": 55.923353,
        "longitude": -5.152758,
        "name": "Colintraive",
        "weather": null
      }
    ],
    "operator": {
      "email": "enquiries@calmac.co.uk",
      "facebook": "https://www.facebook.com/calmacferries",
      "id": 1,
      "international_number": "+44 1475 650 397",
      "local_number": "0800 066 5000",
      "name": "Caledonian MacBrayne",
      "website": "https://calmac.co.uk/",
      "x": "https://x.com/calmacferries"
    },
    "route": "Colintraive (CTR) - Rhubodach (RHU)",
    "service_id": 4,
    "sort_order": 8,
    "status": -99,
    "updated": null,
    "vessels": [],
    "disruption_reason": null
  },
  {
    "additional_info": null,
    "area": "BUTE",
    "last_updated_date": null,
    "locations": [
      {
        "id": 8,
        "latitude": 55.83848,
        "longitude": -5.05421,
        "name": "Rothesay",
        "weather": null
      },
      {
        "id": 7,
        "latitude": 55.87573,
        "longitude": -4.8908,
        "name": "Wemyss Bay",
        "weather": null
      }
    ],
    "operator": {
      "email": "enquiries@calmac.co.uk",
      "facebook": "https://www.facebook.com/calmacferries",
      "id": 1,
      "international_number": "+44 1475 650 397",
      "local_number": "0800 066 5000",
      "name": "Caledonian MacBrayne",
      "website": "https://calmac.co.uk/",
      "x": "https://x.com/calmacferries"
    },
    "route": "Wemyss Bay (WEM) - Rothesay (ROT)",
    "service_id": 3,
    "sort_order": 9,
    "status": -99,
    "updated": null,
    "vessels": [],
    "disruption_reason": null
  },
  {
    "additional_info": null,
    "area": "COLL and TIREE",
    "last_updated_date": null,
    "locations": [
      {
        "id": 25,
        "latitude": 56.508324,
        "longitude": -6.798924,
        "name": "Tiree",
        "weather": null
      },
      {
        "id": 24,
        "latitude": 56.615059,
        "longitude": -6.524241,
        "name": "Coll",
        "weather": null
      },
      {
        "id": 19,
        "latitude": 56.41158,
        "longitude": -5.47725,
        "name": "Oban",
        "weather": null
      }
    ],
    "operator": {
      "email": "enquiries@calmac.co.uk",
      "facebook": "https://www.facebook.com/calmacferries",
      "id": 1,
      "international_number": "+44 1475 650 397",
      "local_number": "0800 066 5000",
      "name": "Caledonian MacBrayne",
      "website": "https://calmac.co.uk/",
      "x": "https://x.com/calmacferries"
    },
    "route": "Oban (OBA) - Coll (CLL) - Tiree (TIR)",
    "service_id": 16,
    "sort_order": 10,
    "status": -99,
    "updated": null,
    "vessels": [],
    "disruption_reason": null
  },
  {
    "additional_info": null,
    "area": "COLONSAY",
    "last_updated_date": null,
    "locations": [
      {
        "id": 28,
        "latitude": 55.8067,
        "longitude": -5.4834,
        "name": "Kennacraig",
        "weather": null
      },
      {
        "id": 27,
        "latitude": 55.847707,
        "longitude": -6.105102,
        "name": "Port Askaig",
        "weather": null
      },
      {
        "id": 26,
        "latitude": 56.06858,
        "longitude": -6.18819,
        "name": "Colonsay",
        "weather": null
      },
      {
        "id": 19,
        "latitude": 56.41158,
        "longitude": -5.47725,
        "name": "Oban",
        "weather": null
      }
    ],
    "operator": {
      "email": "enquiries@calmac.co.uk",
      "facebook": "https://www.facebook.com/calmacferries",
      "id": 1,
      "international_number": "+44 1475 650 397",
      "local_number": "0800 066 5000",
      "name": "Caledonian MacBrayne",
      "website": "https://calmac.co.uk/",
      "x": "https://x.com/calmacferries"
    },
    "route": "Oban (OBA) - Colonsay (CSA) - Port Askaig (PAS) - Kennacraig (KEN)",
    "service_id": 10,
    "sort_order": 11,
    "status": -99,
    "updated": null,
    "vessels": [],
    "disruption_reason": null
  },
  {
    "additional_info": null,
    "area": "COWAL and KINTYRE",
    "last_updated_date": null,
    "locations": [
      {
        "id": 29,
        "latitude": 55.87649,
        "longitude": -5.31654,
        "name": "Portavadie",
        "weather": null
      },
      {
        "id": 15,
        "latitude": 55.86615,
        "longitude": -5.40376,
        "name": "Tarbert (Loch Fyne)",
        "weather": null
      }
    ],
    "operator": {
      "email": "enquiries@calmac.co.uk",
      "facebook": "https://www.facebook.com/calmacferries",
      "id": 1,
      "international_number": "+44 1475 650 397",
      "local_number": "0800 066 5000",
      "name": "Caledonian MacBrayne",
      "website": "https://calmac.co.uk/",
      "x": "https://x.com/calmacferries"
    },
    "route": "Tarbert, Loch Fyne (TLF) - Portavadie (POR)",
    "service_id": 2,
    "sort_order": 12,
    "status": -99,
    "updated": null,
    "vessels": [],
    "disruption_reason": null
  },
  {
    "additional_info": null,
    "area": "COWAL & DUNOON",
    "last_updated_date": null,
    "locations": [
      {
        "id": 57,
        "latitude": 55.947006,
        "longitude": -4.921328,
        "name": "Dunoon",
        "weather": null
      },
      {
        "id": 56,
        "latitude": 55.959938,
        "longitude": -4.814372,
        "name": "Gourock",
        "weather": null
      }
    ],
    "operator": {
      "email": "enquiries@calmac.co.uk",
      "facebook": "https://www.facebook.com/calmacferries",
      "id": 1,
      "international_number": "+44 1475 650 397",
      "local_number": "0800 066 5000",
      "name": "Caledonian MacBrayne",
      "website": "https://calmac.co.uk/",
      "x": "https://x.com/calmacferries"
    },
    "route": "Gourock (GOU) - Dunoon (DUN)",
    "service_id": 1,
    "sort_order": 13,
    "status": -99,
    "updated": null,
    "vessels": [],
    "disruption_reason": null
  },
  {
    "additional_info": null,
    "area": "COWAL & DUNOON",
    "locations": [
      {
        "id": 65,
        "latitude": 55.970673603254305,
        "longitude": -4.909260840891939,
        "name": "Hunters Quay",
        "weather": null
      },
      {
        "id": 64,
        "latitude": 55.95160698614026,
        "longitude": -4.85339972935733,
        "name": "McInroy's Point",
        "weather": null
      }
    ],
    "operator": {
      "email": "enquiries@western-ferries.co.uk",
      "facebook": "https://www.facebook.com/WesternFerries",
      "id": 3,
      "local_number": "01369 704452",
      "name": "Western Ferries",
      "website": "https://www.western-ferries.co.uk/",
      "x": "https://x.com/Western_Ferries"
    },
    "route": "McInroy's Point (Gourock) - Hunters Quay (Dunoon)",
    "service_id": 2000,
    "sort_order": 14,
    "status": -99,
    "updated": null,
    "vessels": [],
    "disruption_reason": null,
    "last_updated_date": null
  },
  {
    "additional_info": null,
    "area": "CUMBRAE",
    "last_updated_date": null,
    "locations": [
      {
        "id": 12,
        "latitude": 55.78671,
        "longitude": -4.898246,
        "name": "Cumbrae Slip",
        "weather": null
      },
      {
        "id": 11,
        "latitude": 55.794945,
        "longitude": -4.871013,
        "name": "Largs",
        "weather": null
      }
    ],
    "operator": {
      "email": "enquiries@calmac.co.uk",
      "facebook": "https://www.facebook.com/calmacferries",
      "id": 1,
      "international_number": "+44 1475 650 397",
      "local_number": "0800 066 5000",
      "name": "Caledonian MacBrayne",
      "website": "https://calmac.co.uk/",
      "x": "https://x.com/calmacferries"
    },
    "route": "Largs (LAR) - Millport, Cumbrae Slip (CUM)",
    "service_id": 7,
    "sort_order": 15,
    "status": -99,
    "updated": null,
    "vessels": [],
    "disruption_reason": null
  },
  {
    "area": "EDAY",
    "locations": [
      {
        "id": 81,
        "latitude": 59.248702844714344,
        "longitude": -2.858451682387489,
        "name": "Rapness",
        "weather": null
      },
      {
        "id": 80,
        "latitude": 59.190785969770495,
        "longitude": -2.6964419915877955,
        "name": "Sanday",
        "weather": null
      },
      {
        "id": 79,
        "latitude": 59.14267302491262,
        "longitude": -2.597842732772849,
        "name": "Stronsay",
        "weather": null
      },
      {
        "id": 78,
        "latitude": 59.15554743669383,
        "longitude": -2.7473148574977544,
        "name": "Eday",
        "weather": null
      },
      {
        "id": 77,
        "latitude": 58.98646780169982,
        "longitude": -2.9603495092811527,
        "name": "Kirkwall",
        "weather": null
      }
    ],
    "operator": {
      "email": "info@orkneyferries.co.uk",
      "facebook": "https://www.facebook.com/OrkneyFerriesLtd/",
      "id": 5,
      "international_number": "+44 1856 872044",
      "local_number": "01856 872044",
      "name": "Orkney Ferries",
      "website": "https://www.orkneyferries.co.uk/",
      "x": "https://twitter.com/OrkneyFerries"
    },
    "route": "Kirkwall - Eday - Stronsay - Sanday - Rapness",
    "service_id": 4000,
    "sort_order": 16,
    "status": -99,
    "updated": null,
    "vessels": [],
    "additional_info": null,
    "disruption_reason": null,
    "last_updated_date": null
  },
  {
    "additional_info": null,
    "area": "GIGHA",
    "last_updated_date": null,
    "locations": [
      {
        "id": 31,
        "latitude": 55.678637,
        "longitude": -5.733597,
        "name": "Gigha",
        "weather": null
      },
      {
        "id": 30,
        "latitude": 55.65755,
        "longitude": -5.6691,
        "name": "Tayinloan",
        "weather": null
      }
    ],
    "operator": {
      "email": "enquiries@calmac.co.uk",
      "facebook": "https://www.facebook.com/calmacferries",
      "id": 1,
      "international_number": "+44 1475 650 397",
      "local_number": "0800 066 5000",
      "name": "Caledonian MacBrayne",
      "website": "https://calmac.co.uk/",
      "x": "https://x.com/calmacferries"
    },
    "route": "Tayinloan (TAY) - Gigha (GIG)",
    "service_id": 8,
    "sort_order": 17,
    "status": -99,
    "updated": null,
    "vessels": [],
    "disruption_reason": null
  },
  {
    "area": "GRAEMSAY",
    "locations": [
      {
        "id": 60,
        "latitude": 58.96421632953152,
        "longitude": -3.2954037645564296,
        "name": "Stromness",
        "weather": null
      },
      {
        "id": 86,
        "latitude": 58.916302446449635,
        "longitude": -3.3118362066164497,
        "name": "Hoy",
        "weather": null
      },
      {
        "id": 85,
        "latitude": 58.93119306928956,
        "longitude": -3.2672566315248606,
        "name": "Graemsay",
        "weather": null
      }
    ],
    "operator": {
      "email": "info@orkneyferries.co.uk",
      "facebook": "https://www.facebook.com/OrkneyFerriesLtd/",
      "id": 5,
      "international_number": "+44 1856 872044",
      "local_number": "01856 872044",
      "name": "Orkney Ferries",
      "website": "https://www.orkneyferries.co.uk/",
      "x": "https://twitter.com/OrkneyFerries"
    },
    "route": "Stromness - Graemsay - Hoy",
    "service_id": 4005,
    "sort_order": 18,
    "status": -99,
    "updated": null,
    "vessels": [],
    "additional_info": null,
    "disruption_reason": null,
    "last_updated_date": null
  },
  {
    "additional_info": null,
    "area": "HARRIS",
    "last_updated_date": null,
    "locations": [
      {
        "id": 33,
        "latitude": 57.896848,
        "longitude": -6.798668,
        "name": "Tarbert",
        "weather": null
      },
      {
        "id": 32,
        "latitude": 57.58634,
        "longitude": -6.376447,
        "name": "Uig",
        "weather": null
      }
    ],
    "operator": {
      "email": "enquiries@calmac.co.uk",
      "facebook": "https://www.facebook.com/calmacferries",
      "id": 1,
      "international_number": "+44 1475 650 397",
      "local_number": "0800 066 5000",
      "name": "Caledonian MacBrayne",
      "website": "https://calmac.co.uk/",
      "x": "https://x.com/calmacferries"
    },
    "route": "Uig (UIG) - Tarbert (TAR)",
    "service_id": 24,
    "sort_order": 19,
    "status": -99,
    "updated": null,
    "vessels": [],
    "disruption_reason": null
  },
  {
    "area": "HOUTON",
    "locations": [
      {
        "id": 90,
        "latitude": 58.80042265386166,
        "longitude": -3.207042537317379,
        "name": "Longhope",
        "weather": null
      },
      {
        "id": 89,
        "latitude": 58.83353714926902,
        "longitude": -3.191641626189918,
        "name": "Lyness",
        "weather": null
      },
      {
        "id": 88,
        "latitude": 58.83807286115842,
        "longitude": -3.1282277823106046,
        "name": "Flotta",
        "weather": null
      },
      {
        "id": 87,
        "latitude": 58.917335897314416,
        "longitude": -3.1838163644115665,
        "name": "Houton",
        "weather": null
      }
    ],
    "operator": {
      "email": "info@orkneyferries.co.uk",
      "facebook": "https://www.facebook.com/OrkneyFerriesLtd/",
      "id": 5,
      "international_number": "+44 1856 872044",
      "local_number": "01856 872044",
      "name": "Orkney Ferries",
      "website": "https://www.orkneyferries.co.uk/",
      "x": "https://twitter.com/OrkneyFerries"
    },
    "route": "Houton - Flotta - Lyness - Longhope",
    "service_id": 4006,
    "sort_order": 20,
    "status": -99,
    "updated": null,
    "vessels": [],
    "additional_info": null,
    "disruption_reason": null,
    "last_updated_date": null
  },
  {
    "additional_info": null,
    "area": "IONA",
    "last_updated_date": null,
    "locations": [
      {
        "id": 35,
        "latitude": 56.330225,
        "longitude": -6.392257,
        "name": "Iona",
        "weather": null
      },
      {
        "id": 34,
        "latitude": 56.325611,
        "longitude": -6.369403,
        "name": "Fionnphort",
        "weather": null
      }
    ],
    "operator": {
      "email": "enquiries@calmac.co.uk",
      "facebook": "https://www.facebook.com/calmacferries",
      "id": 1,
      "international_number": "+44 1475 650 397",
      "local_number": "0800 066 5000",
      "name": "Caledonian MacBrayne",
      "website": "https://calmac.co.uk/",
      "x": "https://x.com/calmacferries"
    },
    "route": "Fionnphort (FIO) - Iona (ION)",
    "service_id": 13,
    "sort_order": 21,
    "status": -99,
    "updated": null,
    "vessels": [],
    "disruption_reason": null
  },
  {
    "additional_info": null,
    "area": "ISLAY",
    "last_updated_date": null,
    "locations": [
      {
        "id": 26,
        "latitude": 56.06858,
        "longitude": -6.18819,
        "name": "Colonsay",
        "weather": null
      },
      {
        "id": 19,
        "latitude": 56.41158,
        "longitude": -5.47725,
        "name": "Oban",
        "weather": null
      },
      {
        "id": 36,
        "latitude": 55.62781,
        "longitude": -6.18981,
        "name": "Port Ellen",
        "weather": null
      },
      {
        "id": 28,
        "latitude": 55.8067,
        "longitude": -5.4834,
        "name": "Kennacraig",
        "weather": null
      },
      {
        "id": 27,
        "latitude": 55.847707,
        "longitude": -6.105102,
        "name": "Port Askaig",
        "weather": null
      }
    ],
    "operator": {
      "email": "enquiries@calmac.co.uk",
      "facebook": "https://www.facebook.com/calmacferries",
      "id": 1,
      "international_number": "+44 1475 650 397",
      "local_number": "0800 066 5000",
      "name": "Caledonian MacBrayne",
      "website": "https://calmac.co.uk/",
      "x": "https://x.com/calmacferries"
    },
    "route": "Kennacraig (KEN) - Port Askaig (PAS), Kennacraig (KEN) - Port Ellen (PEL)",
    "service_id": 9,
    "sort_order": 22,
    "status": -99,
    "updated": null,
    "vessels": [],
    "disruption_reason": null
  },
  {
    "additional_info": null,
    "area": "KERRERA",
    "last_updated_date": null,
    "locations": [
      {
        "id": 55,
        "latitude": 56.399859,
        "longitude": -5.517498,
        "name": "Kerrera",
        "weather": null
      },
      {
        "id": 54,
        "latitude": 56.396995,
        "longitude": -5.510373,
        "name": "Gallanach",
        "weather": null
      }
    ],
    "operator": {
      "email": "enquiries@calmac.co.uk",
      "facebook": "https://www.facebook.com/calmacferries",
      "id": 1,
      "international_number": "+44 1475 650 397",
      "local_number": "0800 066 5000",
      "name": "Caledonian MacBrayne",
      "website": "https://calmac.co.uk/",
      "x": "https://x.com/calmacferries"
    },
    "route": "Gallanach (GAL) - Kerrera (KER)",
    "service_id": 38,
    "sort_order": 23,
    "status": -99,
    "updated": null,
    "vessels": [],
    "disruption_reason": null
  },
  {
    "additional_info": null,
    "area": "KILCREGGAN & ROSNEATH",
    "last_updated_date": null,
    "locations": [
      {
        "id": 58,
        "latitude": 55.984704635223416,
        "longitude": -4.820426740646081,
        "name": "Kilcreggan",
        "weather": null
      },
      {
        "id": 56,
        "latitude": 55.959938,
        "longitude": -4.814372,
        "name": "Gourock",
        "weather": null
      }
    ],
    "operator": {
      "email": "enquiries@calmac.co.uk",
      "facebook": "https://www.facebook.com/calmacferries",
      "id": 1,
      "international_number": "+44 1475 650 397",
      "local_number": "0800 066 5000",
      "name": "Caledonian MacBrayne",
      "website": "https://calmac.co.uk/",
      "x": "https://x.com/calmacferries"
    },
    "route": "Gourock (GOU) - Kilcreggan (KIL)",
    "service_id": 39,
    "sort_order": 24,
    "status": -99,
    "updated": null,
    "vessels": [],
    "disruption_reason": null
  },
  {
    "additional_info": null,
    "area": "KINTYRE",
    "disruption_reason": null,
    "last_updated_date": null,
    "locations": [
      {
        "id": 53,
        "latitude": 55.424047,
        "longitude": -5.599388,
        "name": "Campbeltown",
        "weather": null
      },
      {
        "id": 3,
        "latitude": 55.640516,
        "longitude": -4.823062,
        "name": "Ardrossan",
        "weather": null
      }
    ],
    "operator": {
      "email": "enquiries@calmac.co.uk",
      "facebook": "https://www.facebook.com/calmacferries",
      "id": 1,
      "international_number": "+44 1475 650 397",
      "local_number": "0800 066 5000",
      "name": "Caledonian MacBrayne",
      "website": "https://calmac.co.uk/",
      "x": "https://x.com/calmacferries"
    },
    "route": "Ardrossan (ARD) - Campbeltown (CAM)",
    "service_id": 36,
    "sort_order": 25,
    "status": -99,
    "updated": null,
    "vessels": []
  },
  {
    "additional_info": null,
    "area": "LEWIS",
    "last_updated_date": null,
    "locations": [
      {
        "id": 10,
        "latitude": 57.894939,
        "longitude": -5.160442,
        "name": "Ullapool",
        "weather": null
      },
      {
        "id": 9,
        "latitude": 58.206822,
        "longitude": -6.386586,
        "name": "Stornoway",
        "weather": null
      }
    ],
    "operator": {
      "email": "enquiries@calmac.co.uk",
      "facebook": "https://www.facebook.com/calmacferries",
      "id": 1,
      "international_number": "+44 1475 650 397",
      "local_number": "0800 066 5000",
      "name": "Caledonian MacBrayne",
      "website": "https://calmac.co.uk/",
      "x": "https://x.com/calmacferries"
    },
    "route": "Ullapool (ULL) - Stornoway (STO)",
    "service_id": 25,
    "sort_order": 26,
    "status": -99,
    "updated": null,
    "vessels": [],
    "disruption_reason": null
  },
  {
    "additional_info": null,
    "area": "LEWIS FREIGHT",
    "last_updated_date": null,
    "locations": [
      {
        "id": 10,
        "latitude": 57.894939,
        "longitude": -5.160442,
        "name": "Ullapool",
        "weather": null
      },
      {
        "id": 9,
        "latitude": 58.206822,
        "longitude": -6.386586,
        "name": "Stornoway",
        "weather": null
      }
    ],
    "operator": {
      "email": "enquiries@calmac.co.uk",
      "facebook": "https://www.facebook.com/calmacferries",
      "id": 1,
      "international_number": "+44 1475 650 397",
      "local_number": "0800 066 5000",
      "name": "Caledonian MacBrayne",
      "website": "https://calmac.co.uk/",
      "x": "https://x.com/calmacferries"
    },
    "route": "Freight Ullapool -Stornoway ",
    "service_id": 35,
    "sort_order": 27,
    "status": -99,
    "updated": null,
    "vessels": [],
    "disruption_reason": null
  },
  {
    "additional_info": null,
    "area": "LISMORE",
    "last_updated_date": null,
    "locations": [
      {
        "id": 37,
        "latitude": 56.511159,
        "longitude": -5.492068,
        "name": "Lismore",
        "weather": null
      },
      {
        "id": 19,
        "latitude": 56.41158,
        "longitude": -5.47725,
        "name": "Oban",
        "weather": null
      }
    ],
    "operator": {
      "email": "enquiries@calmac.co.uk",
      "facebook": "https://www.facebook.com/calmacferries",
      "id": 1,
      "international_number": "+44 1475 650 397",
      "local_number": "0800 066 5000",
      "name": "Caledonian MacBrayne",
      "website": "https://calmac.co.uk/",
      "x": "https://x.com/calmacferries"
    },
    "route": "Oban (OBA) - Lismore (LIS)",
    "service_id": 15,
    "sort_order": 28,
    "status": -99,
    "updated": null,
    "vessels": [],
    "disruption_reason": null
  },
  {
    "additional_info": null,
    "area": "MULL",
    "last_updated_date": null,
    "locations": [
      {
        "id": 51,
        "latitude": 56.51472,
        "longitude": -5.81032,
        "name": "Fishnish",
        "weather": null
      },
      {
        "id": 50,
        "latitude": 56.53666,
        "longitude": -5.77502,
        "name": "Lochaline",
        "weather": null
      }
    ],
    "operator": {
      "email": "enquiries@calmac.co.uk",
      "facebook": "https://www.facebook.com/calmacferries",
      "id": 1,
      "international_number": "+44 1475 650 397",
      "local_number": "0800 066 5000",
      "name": "Caledonian MacBrayne",
      "website": "https://calmac.co.uk/",
      "x": "https://x.com/calmacferries"
    },
    "route": "Lochaline (LAL) - Fishnish (FIS)",
    "service_id": 12,
    "sort_order": 29,
    "status": -99,
    "updated": null,
    "vessels": [],
    "disruption_reason": null
  },
  {
    "additional_info": null,
    "area": "MULL",
    "last_updated_date": null,
    "locations": [
      {
        "id": 38,
        "latitude": 56.47074,
        "longitude": -5.70629,
        "name": "Craignure",
        "weather": null
      },
      {
        "id": 19,
        "latitude": 56.41158,
        "longitude": -5.47725,
        "name": "Oban",
        "weather": null
      }
    ],
    "operator": {
      "email": "enquiries@calmac.co.uk",
      "facebook": "https://www.facebook.com/calmacferries",
      "id": 1,
      "international_number": "+44 1475 650 397",
      "local_number": "0800 066 5000",
      "name": "Caledonian MacBrayne",
      "website": "https://calmac.co.uk/",
      "x": "https://x.com/calmacferries"
    },
    "route": "Oban (OBA) - Craignure (CRA)",
    "service_id": 11,
    "sort_order": 30,
    "status": -99,
    "updated": null,
    "vessels": [],
    "disruption_reason": null
  },
  {
    "additional_info": null,
    "area": "NORTH UIST",
    "last_updated_date": null,
    "locations": [
      {
        "id": 33,
        "latitude": 57.896848,
        "longitude": -6.798668,
        "name": "Tarbert",
        "weather": null
      },
      {
        "id": 39,
        "latitude": 57.596518,
        "longitude": -7.157672,
        "name": "Lochmaddy",
        "weather": null
      },
      {
        "id": 32,
        "latitude": 57.58634,
        "longitude": -6.376447,
        "name": "Uig",
        "weather": null
      }
    ],
    "operator": {
      "email": "enquiries@calmac.co.uk",
      "facebook": "https://www.facebook.com/calmacferries",
      "id": 1,
      "international_number": "+44 1475 650 397",
      "local_number": "0800 066 5000",
      "name": "Caledonian MacBrayne",
      "website": "https://calmac.co.uk/",
      "x": "https://x.com/calmacferries"
    },
    "route": "Uig, Skye (UIG) - Lochmaddy (LMA)",
    "service_id": 22,
    "sort_order": 31,
    "status": -99,
    "updated": null,
    "vessels": [],
    "disruption_reason": null
  },
  {
    "additional_info": null,
    "area": "NORTH UIST and HARRIS",
    "last_updated_date": null,
    "locations": [
      {
        "id": 41,
        "latitude": 57.76654,
        "longitude": -7.025258,
        "name": "Leverburgh",
        "weather": null
      },
      {
        "id": 40,
        "latitude": 57.702302,
        "longitude": -7.180422,
        "name": "Berneray",
        "weather": null
      }
    ],
    "operator": {
      "email": "enquiries@calmac.co.uk",
      "facebook": "https://www.facebook.com/calmacferries",
      "id": 1,
      "international_number": "+44 1475 650 397",
      "local_number": "0800 066 5000",
      "name": "Caledonian MacBrayne",
      "website": "https://calmac.co.uk/",
      "x": "https://x.com/calmacferries"
    },
    "route": "Berneray (BER) - Leverburgh (LEV)",
    "service_id": 23,
    "sort_order": 32,
    "status": -99,
    "updated": null,
    "vessels": [],
    "disruption_reason": null
  },
  {
    "additional_info": null,
    "area": "ORKNEY & SHETLAND",
    "locations": [
      {
        "id": 63,
        "latitude": 60.16270380403575,
        "longitude": -1.1589239389948884,
        "name": "Lerwick",
        "weather": null
      },
      {
        "id": 62,
        "latitude": 58.99989823953207,
        "longitude": -2.9742511887813246,
        "name": "Kirkwall",
        "weather": null
      },
      {
        "id": 61,
        "latitude": 57.145172030019346,
        "longitude": -2.091230925036305,
        "name": "Aberdeen",
        "weather": null
      },
      {
        "id": 60,
        "latitude": 58.96421632953152,
        "longitude": -3.2954037645564296,
        "name": "Stromness",
        "weather": null
      },
      {
        "id": 59,
        "latitude": 58.61252430922174,
        "longitude": -3.545534457670658,
        "name": "Scrabster",
        "weather": null
      }
    ],
    "operator": {
      "email": "reservations@northlinkferries.co.uk",
      "facebook": "https://www.facebook.com/NorthLinkFerries/",
      "id": 2,
      "international_number": "+44 1856 885 500",
      "local_number": "0800 111 4422",
      "name": "NorthLink Ferries",
      "website": "https://www.northlinkferries.co.uk",
      "x": "https://x.com/NLFerries"
    },
    "route": "Scrabster - Stromness / Aberdeen - Kirkwall - Lerwick",
    "service_id": 1000,
    "sort_order": 33,
    "status": -99,
    "updated": null,
    "vessels": [],
    "disruption_reason": null,
    "last_updated_date": null
  },
  {
    "area": "PIEROWALL - PAPA WESTRAY",
    "locations": [
      {
        "id": 96,
        "latitude": 59.32685487460761,
        "longitude": -2.8915579942483736,
        "name": "Papa Westray",
        "weather": null
      },
      {
        "id": 95,
        "latitude": 59.3232945827641,
        "longitude": -2.9746761333592557,
        "name": "Pierowall",
        "weather": null
      }
    ],
    "operator": {
      "email": "info@orkneyferries.co.uk",
      "facebook": "https://www.facebook.com/OrkneyFerriesLtd/",
      "id": 5,
      "international_number": "+44 1856 872044",
      "local_number": "01856 872044",
      "name": "Orkney Ferries",
      "website": "https://www.orkneyferries.co.uk/",
      "x": "https://twitter.com/OrkneyFerries"
    },
    "route": "Westray Pierowall - Papa Westray",
    "service_id": 4008,
    "sort_order": 34,
    "status": -99,
    "updated": null,
    "vessels": [],
    "additional_info": null,
    "disruption_reason": null,
    "last_updated_date": null
  },
  {
    "additional_info": null,
    "area": "RAASAY",
    "last_updated_date": null,
    "locations": [
      {
        "id": 43,
        "latitude": 57.351034,
        "longitude": -6.082454,
        "name": "Raasay",
        "weather": null
      },
      {
        "id": 42,
        "latitude": 57.313967,
        "longitude": -6.110329,
        "name": "Sconser",
        "weather": null
      }
    ],
    "operator": {
      "email": "enquiries@calmac.co.uk",
      "facebook": "https://www.facebook.com/calmacferries",
      "id": 1,
      "international_number": "+44 1475 650 397",
      "local_number": "0800 066 5000",
      "name": "Caledonian MacBrayne",
      "website": "https://calmac.co.uk/",
      "x": "https://x.com/calmacferries"
    },
    "route": "Sconser (SCO) - Raasay (RAA)",
    "service_id": 17,
    "sort_order": 35,
    "status": -99,
    "updated": null,
    "vessels": [],
    "disruption_reason": null
  },
  {
    "area": "ROUSAY, EGILSAY & WYRE",
    "locations": [
      {
        "id": 94,
        "latitude": 59.15580615476281,
        "longitude": -2.942737599063998,
        "name": "Egilsay",
        "weather": null
      },
      {
        "id": 93,
        "latitude": 59.08867039132888,
        "longitude": -3.0434806516423203,
        "name": "Tingwall",
        "weather": null
      },
      {
        "id": 92,
        "latitude": 59.13061386489054,
        "longitude": -2.9861748085213837,
        "name": "Rousay",
        "weather": null
      },
      {
        "id": 91,
        "latitude": 59.12483221195805,
        "longitude": -2.9724840291593946,
        "name": "Wyre",
        "weather": null
      }
    ],
    "operator": {
      "email": "info@orkneyferries.co.uk",
      "facebook": "https://www.facebook.com/OrkneyFerriesLtd/",
      "id": 5,
      "international_number": "+44 1856 872044",
      "local_number": "01856 872044",
      "name": "Orkney Ferries",
      "website": "https://www.orkneyferries.co.uk/",
      "x": "https://twitter.com/OrkneyFerries"
    },
    "route": "Tingwall - Rousay - Egilsay - Wyre",
    "service_id": 4007,
    "sort_order": 36,
    "status": -99,
    "updated": null,
    "vessels": [],
    "additional_info": null,
    "disruption_reason": null,
    "last_updated_date": null
  },
  {
    "area": "SANDAY",
    "locations": [
      {
        "id": 81,
        "latitude": 59.248702844714344,
        "longitude": -2.858451682387489,
        "name": "Rapness",
        "weather": null
      },
      {
        "id": 80,
        "latitude": 59.190785969770495,
        "longitude": -2.6964419915877955,
        "name": "Sanday",
        "weather": null
      },
      {
        "id": 79,
        "latitude": 59.14267302491262,
        "longitude": -2.597842732772849,
        "name": "Stronsay",
        "weather": null
      },
      {
        "id": 78,
        "latitude": 59.15554743669383,
        "longitude": -2.7473148574977544,
        "name": "Eday",
        "weather": null
      },
      {
        "id": 77,
        "latitude": 58.98646780169982,
        "longitude": -2.9603495092811527,
        "name": "Kirkwall",
        "weather": null
      }
    ],
    "operator": {
      "email": "info@orkneyferries.co.uk",
      "facebook": "https://www.facebook.com/OrkneyFerriesLtd/",
      "id": 5,
      "international_number": "+44 1856 872044",
      "local_number": "01856 872044",
      "name": "Orkney Ferries",
      "website": "https://www.orkneyferries.co.uk/",
      "x": "https://twitter.com/OrkneyFerries"
    },
    "route": "Kirkwall - Eday - Stronsay - Sanday - Rapness",
    "service_id": 4001,
    "sort_order": 37,
    "status": -99,
    "updated": null,
    "vessels": [],
    "additional_info": null,
    "disruption_reason": null,
    "last_updated_date": null
  },
  {
    "area": "SHAPINSAY",
    "locations": [
      {
        "id": 83,
        "latitude": 59.031464993313435,
        "longitude": -2.9095489932332796,
        "name": "Shapinsay",
        "weather": null
      },
      {
        "id": 82,
        "latitude": 58.98530772397149,
        "longitude": -2.9604274613197075,
        "name": "Kirkwall Shapinsay",
        "weather": null
      }
    ],
    "operator": {
      "email": "info@orkneyferries.co.uk",
      "facebook": "https://www.facebook.com/OrkneyFerriesLtd/",
      "id": 5,
      "international_number": "+44 1856 872044",
      "local_number": "01856 872044",
      "name": "Orkney Ferries",
      "website": "https://www.orkneyferries.co.uk/",
      "x": "https://twitter.com/OrkneyFerries"
    },
    "route": "Kirkwall - Shapinsay",
    "service_id": 4004,
    "sort_order": 38,
    "status": -99,
    "updated": null,
    "vessels": [],
    "additional_info": null,
    "disruption_reason": null,
    "last_updated_date": null
  },
  {
    "area": "SKERRIES",
    "locations": [
      {
        "id": 76,
        "latitude": 60.37282293039965,
        "longitude": -1.1293572113730086,
        "name": "Vidlin",
        "weather": null
      },
      {
        "id": 75,
        "latitude": 60.42273340335759,
        "longitude": -0.7511959108313978,
        "name": "Skerries",
        "weather": null
      },
      {
        "id": 74,
        "latitude": 60.34191010787282,
        "longitude": -1.028640592585364,
        "name": "Symbister",
        "weather": null
      },
      {
        "id": 73,
        "latitude": 60.352141839514786,
        "longitude": -1.1702833067214111,
        "name": "Laxo",
        "weather": null
      },
      {
        "id": 71,
        "latitude": 60.15592026531444,
        "longitude": -1.1427881939348081,
        "name": "Lerwick",
        "weather": null
      }
    ],
    "operator": {
      "email": "ferries@shetland.gov.uk",
      "facebook": "https://www.facebook.com/ShetlandIslandsCouncil/",
      "id": 4,
      "local_number": "01806 244200",
      "name": "Shetland Ferries",
      "website": "https://www.shetland.gov.uk/ferries",
      "x": "https://twitter.com/ShetIslandsCll"
    },
    "route": "Laxo - Symbister - Skerries - Vidlin - Lerwick",
    "service_id": 3004,
    "sort_order": 39,
    "status": -99,
    "updated": null,
    "vessels": [],
    "additional_info": null,
    "disruption_reason": null,
    "last_updated_date": null
  },
  {
    "additional_info": null,
    "area": "SKYE",
    "last_updated_date": null,
    "locations": [
      {
        "id": 45,
        "latitude": 57.064596,
        "longitude": -5.894743,
        "name": "Armadale",
        "weather": null
      },
      {
        "id": 44,
        "latitude": 57.006834,
        "longitude": -5.828069,
        "name": "Mallaig",
        "weather": null
      }
    ],
    "operator": {
      "email": "enquiries@calmac.co.uk",
      "facebook": "https://www.facebook.com/calmacferries",
      "id": 1,
      "international_number": "+44 1475 650 397",
      "local_number": "0800 066 5000",
      "name": "Caledonian MacBrayne",
      "website": "https://calmac.co.uk/",
      "x": "https://x.com/calmacferries"
    },
    "route": "Mallaig (MAL) - Armadale (ARM)",
    "service_id": 18,
    "sort_order": 40,
    "status": -99,
    "updated": null,
    "vessels": [],
    "disruption_reason": null
  },
  {
    "additional_info": null,
    "area": "SMALL ISLES",
    "disruption_reason": null,
    "last_updated_date": null,
    "locations": [
      {
        "id": 49,
        "latitude": 57.056171,
        "longitude": -6.490296,
        "name": "Canna",
        "weather": null
      },
      {
        "id": 48,
        "latitude": 57.010862,
        "longitude": -6.264991,
        "name": "Rum",
        "weather": null
      },
      {
        "id": 47,
        "latitude": 56.83364,
        "longitude": -6.226905,
        "name": "Muck",
        "weather": null
      },
      {
        "id": 46,
        "latitude": 56.8772,
        "longitude": -6.12995,
        "name": "Eigg",
        "weather": null
      },
      {
        "id": 44,
        "latitude": 57.006834,
        "longitude": -5.828069,
        "name": "Mallaig",
        "weather": null
      }
    ],
    "operator": {
      "email": "enquiries@calmac.co.uk",
      "facebook": "https://www.facebook.com/calmacferries",
      "id": 1,
      "international_number": "+44 1475 650 397",
      "local_number": "0800 066 5000",
      "name": "Caledonian MacBrayne",
      "website": "https://calmac.co.uk/",
      "x": "https://x.com/calmacferries"
    },
    "route": "Mallaig (MAL) - Small Isles (SIS)",
    "service_id": 19,
    "sort_order": 41,
    "status": -99,
    "updated": null,
    "vessels": []
  },
  {
    "additional_info": null,
    "area": "SOUTH UIST",
    "last_updated_date": null,
    "locations": [
      {
        "id": 44,
        "latitude": 57.006834,
        "longitude": -5.828069,
        "name": "Mallaig",
        "weather": null
      },
      {
        "id": 21,
        "latitude": 57.152201,
        "longitude": -7.303969,
        "name": "Lochboisdale",
        "weather": null
      }
    ],
    "operator": {
      "email": "enquiries@calmac.co.uk",
      "facebook": "https://www.facebook.com/calmacferries",
      "id": 1,
      "international_number": "+44 1475 650 397",
      "local_number": "0800 066 5000",
      "name": "Caledonian MacBrayne",
      "website": "https://calmac.co.uk/",
      "x": "https://x.com/calmacferries"
    },
    "route": "Mallaig (MAL)/Oban (OBA) - Lochboisdale (LBO)",
    "service_id": 37,
    "sort_order": 42,
    "status": -99,
    "updated": null,
    "vessels": [],
    "disruption_reason": null
  },
  {
    "area": "STRONSAY",
    "locations": [
      {
        "id": 81,
        "latitude": 59.248702844714344,
        "longitude": -2.858451682387489,
        "name": "Rapness",
        "weather": null
      },
      {
        "id": 80,
        "latitude": 59.190785969770495,
        "longitude": -2.6964419915877955,
        "name": "Sanday",
        "weather": null
      },
      {
        "id": 79,
        "latitude": 59.14267302491262,
        "longitude": -2.597842732772849,
        "name": "Stronsay",
        "weather": null
      },
      {
        "id": 78,
        "latitude": 59.15554743669383,
        "longitude": -2.7473148574977544,
        "name": "Eday",
        "weather": null
      },
      {
        "id": 77,
        "latitude": 58.98646780169982,
        "longitude": -2.9603495092811527,
        "name": "Kirkwall",
        "weather": null
      }
    ],
    "operator": {
      "email": "info@orkneyferries.co.uk",
      "facebook": "https://www.facebook.com/OrkneyFerriesLtd/",
      "id": 5,
      "international_number": "+44 1856 872044",
      "local_number": "01856 872044",
      "name": "Orkney Ferries",
      "website": "https://www.orkneyferries.co.uk/",
      "x": "https://twitter.com/OrkneyFerries"
    },
    "route": "Kirkwall - Eday - Stronsay - Sanday - Rapness",
    "service_id": 4002,
    "sort_order": 43,
    "status": -99,
    "updated": null,
    "vessels": [],
    "additional_info": null,
    "disruption_reason": null,
    "last_updated_date": null
  },
  {
    "area": "WESTRAY",
    "locations": [
      {
        "id": 81,
        "latitude": 59.248702844714344,
        "longitude": -2.858451682387489,
        "name": "Rapness",
        "weather": null
      },
      {
        "id": 80,
        "latitude": 59.190785969770495,
        "longitude": -2.6964419915877955,
        "name": "Sanday",
        "weather": null
      },
      {
        "id": 79,
        "latitude": 59.14267302491262,
        "longitude": -2.597842732772849,
        "name": "Stronsay",
        "weather": null
      },
      {
        "id": 78,
        "latitude": 59.15554743669383,
        "longitude": -2.7473148574977544,
        "name": "Eday",
        "weather": null
      },
      {
        "id": 77,
        "latitude": 58.98646780169982,
        "longitude": -2.9603495092811527,
        "name": "Kirkwall",
        "weather": null
      }
    ],
    "operator": {
      "email": "info@orkneyferries.co.uk",
      "facebook": "https://www.facebook.com/OrkneyFerriesLtd/",
      "id": 5,
      "international_number": "+44 1856 872044",
      "local_number": "01856 872044",
      "name": "Orkney Ferries",
      "website": "https://www.orkneyferries.co.uk/",
      "x": "https://twitter.com/OrkneyFerries"
    },
    "route": "Kirkwall - Eday - Stronsay - Sanday - Rapness",
    "service_id": 4003,
    "sort_order": 44,
    "status": -99,
    "updated": null,
    "vessels": [],
    "additional_info": null,
    "disruption_reason": null,
    "last_updated_date": null
  },
  {
    "area": "WHALSAY",
    "locations": [
      {
        "id": 74,
        "latitude": 60.34191010787282,
        "longitude": -1.028640592585364,
        "name": "Symbister",
        "weather": null
      },
      {
        "id": 73,
        "latitude": 60.352141839514786,
        "longitude": -1.1702833067214111,
        "name": "Laxo",
        "weather": null
      }
    ],
    "operator": {
      "email": "ferries@shetland.gov.uk",
      "facebook": "https://www.facebook.com/ShetlandIslandsCouncil/",
      "id": 4,
      "local_number": "01806 244200",
      "name": "Shetland Ferries",
      "website": "https://www.shetland.gov.uk/ferries",
      "x": "https://twitter.com/ShetIslandsCll"
    },
    "route": "Laxo - Symbister",
    "service_id": 3003,
    "sort_order": 45,
    "status": -99,
    "updated": null,
    "vessels": [],
    "additional_info": null,
    "disruption_reason": null,
    "last_updated_date": null
  },
  {
    "area": "YELL",
    "locations": [
      {
        "id": 70,
        "latitude": 60.49638392192762,
        "longitude": -1.1585186085702022,
        "name": "Ulsta",
        "weather": null
      },
      {
        "id": 69,
        "latitude": 60.46679304368115,
        "longitude": -1.2068379688066269,
        "name": "Toft",
        "weather": null
      }
    ],
    "operator": {
      "email": "ferries@shetland.gov.uk",
      "facebook": "https://www.facebook.com/ShetlandIslandsCouncil/",
      "id": 4,
      "local_number": "01806 244200",
      "name": "Shetland Ferries",
      "website": "https://www.shetland.gov.uk/ferries",
      "x": "https://twitter.com/ShetIslandsCll"
    },
    "route": "Toft - Ulsta",
    "service_id": 3001,
    "sort_order": 46,
    "status": -99,
    "updated": null,
    "vessels": [],
    "additional_info": null,
    "disruption_reason": null,
    "last_updated_date": null
  }
]
