[
  {
    "additional_info": null,
    "area": "Arran",
    "locations": [
      {
        "id": 4,
        "latitude": 55.576606,
        "longitude": -5.139172,
        "name": "Brodick"
      },
      {
        "id": 3,
        "latitude": 55.640516,
        "longitude": -4.823062,
        "name": "Ardrossan"
      }
    ],
    "operator": {
      "email": "enquiries@calmac.co.uk",
      "facebook": "https://www.facebook.com/calmacferries",
      "id": 1,
      "international_number": "+44 1475 650 397",
      "local_number": "0800 066 5000",
      "name": "Caledonian MacBrayne",
      "website": "https://calmac.co.uk/",
      "x": "https://x.com/calmacferries"
    },
    "route": "Ardrossan - Brodick",
    "scheduled_departures_available": true,
    "service_id": 5,
    "status": -99,
    "updated": "1970-01-01T00:00:00Z",
    "vessels": [],
    "disruption_reason": null,
    "last_updated_date": null
  },
  {
    "additional_info": null,
    "area": "Arran",
    "locations": [
      {
        "id": 52,
        "latitude": 55.75106,
        "longitude": -5.38787,
        "name": "Claonaig"
      },
      {
        "id": 16,
        "latitude": 55.707714,
        "longitude": -5.301985,
        "name": "Lochranza"
      },
      {
        "id": 15,
        "latitude": 55.86615,
        "longitude": -5.40376,
        "name": "Tarbert (Loch Fyne)"
      }
    ],
    "operator": {
      "email": "enquiries@calmac.co.uk",
      "facebook": "https://www.facebook.com/calmacferries",
      "id": 1,
      "international_number": "+44 1475 650 397",
      "local_number": "0800 066 5000",
      "name": "Caledonian MacBrayne",
      "website": "https://calmac.co.uk/",
      "x": "https://x.com/calmacferries"
    },
    "route": "Claonaig - Lochranza",
    "scheduled_departures_available": true,
    "service_id": 6,
    "status": -99,
    "updated": "1970-01-01T00:00:00Z",
    "vessels": [],
    "disruption_reason": null,
    "last_updated_date": null
  },
  {
    "additional_info": null,
    "area": "Arran",
    "locations": [
      {
        "id": 97,
        "latitude": 55.549294792361195,
        "longitude": -4.682825196631705,
        "name": "Troon"
      },
      {
        "id": 4,
        "latitude": 55.576606,
        "longitude": -5.139172,
        "name": "Brodick"
      }
    ],
    "operator": {
      "email": "enquiries@calmac.co.uk",
      "facebook": "https://www.facebook.com/calmacferries",
      "id": 1,
      "international_number": "+44 1475 650 397",
      "local_number": "0800 066 5000",
      "name": "Caledonian MacBrayne",
      "website": "https://calmac.co.uk/",
      "x": "https://x.com/calmacferries"
    },
    "route": "Troon - Brodick",
    "scheduled_departures_available": true,
    "service_id": 41,
    "status": -99,
    "updated": "1970-01-01T00:00:00Z",
    "vessels": [],
    "disruption_reason": null,
    "last_updated_date": null
  },
  {
    "additional_info": null,
    "area": "Barra",
    "locations": [
      {
        "id": 21,
        "latitude": 57.152201,
        "longitude": -7.303969,
        "name": "Lochboisdale"
      },
      {
        "id": 20,
        "latitude": 56.953846,
        "longitude": -7.488251,
        "name": "Castlebay"
      },
      {
        "id": 19,
        "latitude": 56.41158,
        "longitude": -5.47725,
        "name": "Oban"
      }
    ],
    "operator": {
      "email": "enquiries@calmac.co.uk",
      "facebook": "https://www.facebook.com/calmacferries",
      "id": 1,
      "international_number": "+44 1475 650 397",
      "local_number": "0800 066 5000",
      "name": "Caledonian MacBrayne",
      "website": "https://calmac.co.uk/",
      "x": "https://x.com/calmacferries"
    },
    "route": "Oban - Castlebay",
    "scheduled_departures_available": true,
    "service_id": 20,
    "status": -99,
    "updated": "1970-01-01T00:00:00Z",
    "vessels": [],
    "disruption_reason": null,
    "last_updated_date": null
  },
  {
    "additional_info": null,
    "area": "Bluemull Sound",
    "locations": [
      {
        "id": 68,
        "latitude": 60.62920742111861,
        "longitude": -0.931458525094521,
        "name": "Hamars Ness"
      },
      {
        "id": 67,
        "latitude": 60.683245697249724,
        "longitude": -0.966809460926674,
        "name": "Belmont"
      },
      {
        "id": 66,
        "latitude": 60.67302336320226,
        "longitude": -0.9964222948573699,
        "name": "Gutcher"
      }
    ],
    "operator": {
      "email": "ferries@shetland.gov.uk",
      "facebook": "https://www.facebook.com/ShetlandIslandsCouncil/",
      "id": 4,
      "local_number": "01806 244200",
      "name": "Shetland Ferries",
      "website": "https://www.shetland.gov.uk/ferries",
      "x": "https://twitter.com/ShetIslandsCll"
    },
    "route": "Gutcher - Belmont - Hamars Ness",
    "scheduled_departures_available": true,
    "service_id": 3000,
    "status": -99,
    "updated": "1970-01-01T00:00:00Z",
    "vessels": [],
    "disruption_reason": null,
    "last_updated_date": null
  },
  {
    "additional_info": null,
    "area": "Bressay",
    "locations": [
      {
        "id": 72,
        "latitude": 60.15720064370729,
        "longitude": -1.1232174110338675,
        "name": "Bressay"
      },
      {
        "id": 71,
        "latitude": 60.15592026531444,
        "longitude": -1.1427881939348081,
        "name": "Lerwick"
      }
    ],
    "operator": {
      "email": "ferries@shetland.gov.uk",
      "facebook": "https://www.facebook.com/ShetlandIslandsCouncil/",
      "id": 4,
      "local_number": "01806 244200",
      "name": "Shetland Ferries",
      "website": "https://www.shetland.gov.uk/ferries",
      "x": "https://twitter.com/ShetIslandsCll"
    },
    "route": "Lerwick - Bressay",
    "scheduled_departures_available": true,
    "service_id": 3002,
    "status": -99,
    "updated": "1970-01-01T00:00:00Z",
    "vessels": [],
    "disruption_reason": null,
    "last_updated_date": null
  },
  {
    "additional_info": null,
    "area": "Bute",
    "locations": [
      {
        "id": 23,
        "latitude": 55.92067,
        "longitude": -5.15888,
        "name": "Rhubodach"
      },
      {
        "id": 22,
        "latitude": 55.923353,
        "longitude": -5.152758,
        "name": "Colintraive"
      }
    ],
    "operator": {
      "email": "enquiries@calmac.co.uk",
      "facebook": "https://www.facebook.com/calmacferries",
      "id": 1,
      "international_number": "+44 1475 650 397",
      "local_number": "0800 066 5000",
      "name": "Caledonian MacBrayne",
      "website": "https://calmac.co.uk/",
      "x": "https://x.com/calmacferries"
    },
    "route": "Colintraive - Rhubodach",
    "scheduled_departures_available": true,
    "service_id": 4,
    "status": -99,
    "updated": "1970-01-01T00:00:00Z",
    "vessels": [],
    "disruption_reason": null,
    "last_updated_date": null
  },
  {
    "additional_info": null,
    "area": "Bute",
    "locations": [
      {
        "id": 8,
        "latitude": 55.83848,
        "longitude": -5.05421,
        "name": "Rothesay"
      },
      {
        "id": 7,
        "latitude": 55.87573,
        "longitude": -4.8908,
        "name": "Wemyss Bay"
      }
    ],
    "operator": {
      "email": "enquiries@calmac.co.uk",
      "facebook": "https://www.facebook.com/calmacferries",
      "id": 1,
      "international_number": "+44 1475 650 397",
      "local_number": "0800 066 5000",
      "name": "Caledonian MacBrayne",
      "website": "https://calmac.co.uk/",
      "x": "https://x.com/calmacferries"
    },
    "route": "Wemyss Bay - Rothesay",
    "scheduled_departures_available": true,
    "service_id": 3,
    "status": -99,
    "updated": "1970-01-01T00:00:00Z",
    "vessels": [],
    "disruption_reason": null,
    "last_updated_date": null
  },
  {
    "additional_info": null,
    "area": "Canna",
    "locations": [
      {
        "id": 49,
        "latitude": 57.056171,
        "longitude": -6.490296,
        "name": "Canna"
      },
      {
        "id": 48,
        "latitude": 57.010862,
        "longitude": -6.264991,
        "name": "Rum"
      },
      {
        "id": 47,
        "latitude": 56.83364,
        "longitude": -6.226905,
        "name": "Muck"
      },
      {
        "id": 46,
        "latitude": 56.8772,
        "longitude": -6.12995,
        "name": "Eigg"
      },
      {
        "id": 44,
        "latitude": 57.006834,
        "longitude": -5.828069,
        "name": "Mallaig"
      }
    ],
    "operator": {
      "email": "enquiries@calmac.co.uk",
      "facebook": "https://www.facebook.com/calmacferries",
      "id": 1,
      "international_number": "+44 1475 650 397",
      "local_number": "0800 066 5000",
      "name": "Caledonian MacBrayne",
      "website": "https://calmac.co.uk/",
      "x": "https://x.com/calmacferries"
    },
    "route": "Mallaig - Eigg/Muck/Rum/Canna",
    "scheduled_departures_available": true,
    "service_id": 19,
    "status": -99,
    "updated": "1970-01-01T00:00:00Z",
    "vessels": [],
    "disruption_reason": null,
    "last_updated_date": null
  },
  {
    "additional_info": null,
    "area": "Colonsay",
    "locations": [
      {
        "id": 28,
        "latitude": 55.8067,
        "longitude": -5.4834,
        "name": "Kennacraig"
      },
      {
        "id": 27,
        "latitude": 55.847707,
        "longitude": -6.105102,
        "name": "Port Askaig"
      },
      {
        "id": 26,
        "latitude": 56.06858,
        "longitude": -6.18819,
        "name": "Colonsay"
      },
      {
        "id": 19,
        "latitude": 56.41158,
        "longitude": -5.47725,
        "name": "Oban"
      }
    ],
    "operator": {
      "email": "enquiries@calmac.co.uk",
      "facebook": "https://www.facebook.com/calmacferries",
      "id": 1,
      "international_number": "+44 1475 650 397",
      "local_number": "0800 066 5000",
      "name": "Caledonian MacBrayne",
      "website": "https://calmac.co.uk/",
      "x": "https://x.com/calmacferries"
    },
    "route": "Oban - Colonsay - Port Askaig - Kennacraig",
    "scheduled_departures_available": true,
    "service_id": 10,
    "status": -99,
    "updated": "1970-01-01T00:00:00Z",
    "vessels": [],
    "disruption_reason": null,
    "last_updated_date": null
  },
  {
    "area": "Corran",
    "locations": [
      {
        "id": 101,
        "latitude": 56.72269921964747,
        "longitude": -5.243313948783956,
        "name": "Ardgour"
      },
      {
        "id": 100,
        "latitude": 56.72145,
        "longitude": -5.23548,
        "name": "Nether Lochaber"
      }
    ],
    "operator": {
      "facebook": "https://www.facebook.com/CorranFerryService/",
      "id": 7,
      "international_number": "+44 1855 841243",
      "local_number": "01855 841243",
      "name": "Highland Council",
      "website": "https://www.highland.gov.uk/corran-ferry",
      "x": "https://twitter.com/CorranFerry"
    },
    "route": "Nether Lochaber - Ardgour",
    "scheduled_departures_available": true,
    "service_id": 6000,
    "status": -99,
    "updated": "1970-01-01T00:00:00Z",
    "vessels": [],
    "additional_info": null,
    "disruption_reason": null,
    "last_updated_date": null
  },
  {
    "additional_info": null,
    "area": "Cowal and Dunoon",
    "locations": [
      {
        "id": 57,
        "latitude": 55.947006,
        "longitude": -4.921328,
        "name": "Dunoon"
      },
      {
        "id": 56,
        "latitude": 55.959938,
        "longitude": -4.814372,
        "name": "Gourock"
      }
    ],
    "operator": {
      "email": "enquiries@calmac.co.uk",
      "facebook": "https://www.facebook.com/calmacferries",
      "id": 1,
      "international_number": "+44 1475 650 397",
      "local_number": "0800 066 5000",
      "name": "Caledonian MacBrayne",
      "website": "https://calmac.co.uk/",
      "x": "https://x.com/calmacferries"
    },
    "route": "Gourock - Dunoon",
    "scheduled_departures_available": true,
    "service_id": 1,
    "status": -99,
    "updated": "1970-01-01T00:00:00Z",
    "vessels": [],
    "disruption_reason": null,
    "last_updated_date": null
  },
  {
    "additional_info": null,
    "area": "Cowal and Kintyre",
    "locations": [
      {
        "id": 29,
        "latitude": 55.87649,
        "longitude": -5.31654,
        "name": "Portavadie"
      },
      {
        "id": 15,
        "latitude": 55.86615,
        "longitude": -5.40376,
        "name": "Tarbert (Loch Fyne)"
      }
    ],
    "operator": {
      "email": "enquiries@calmac.co.uk",
      "facebook": "https://www.facebook.com/calmacferries",
      "id": 1,
      "international_number": "+44 1475 650 397",
      "local_number": "0800 066 5000",
      "name": "Caledonian MacBrayne",
      "website": "https://calmac.co.uk/",
      "x": "https://x.com/calmacferries"
    },
    "route": "Tarbert (Loch Fyne) - Portavadie",
    "scheduled_departures_available": true,
    "service_id": 2,
    "status": -99,
    "updated": "1970-01-01T00:00:00Z",
    "vessels": [],
    "disruption_reason": null,
    "last_updated_date": null
  },
  {
    "area": "Cowal & Dunoon",
    "locations": [
      {
        "id": 65,
        "latitude": 55.970673603254305,
        "longitude": -4.909260840891939,
        "name": "Hunters Quay"
      },
      {
        "id": 64,
        "latitude": 55.95160698614026,
        "longitude": -4.85339972935733,
        "name": "McInroy's Point"
      }
    ],
    "operator": {
      "email": "enquiries@western-ferries.co.uk",
      "facebook": "https://www.facebook.com/WesternFerries",
      "id": 3,
      "local_number": "01369 704452",
      "name": "Western Ferries",
      "website": "https://www.western-ferries.co.uk/",
      "x": "https://x.com/Western_Ferries"
    },
    "route": "McInroy's Point (Gourock) - Hunters Quay (Dunoon)",
    "scheduled_departures_available": true,
    "service_id": 2000,
    "status": -99,
    "updated": "1970-01-01T00:00:00Z",
    "vessels": [],
    "additional_info": null,
    "disruption_reason": null,
    "last_updated_date": null
  },
  {
    "additional_info": null,
    "area": "Cumbrae",
    "locations": [
      {
        "id": 12,
        "latitude": 55.78671,
        "longitude": -4.898246,
        "name": "Cumbrae Slip"
      },
      {
        "id": 11,
        "latitude": 55.794945,
        "longitude": -4.871013,
        "name": "Largs"
      }
    ],
    "operator": {
      "email": "enquiries@calmac.co.uk",
      "facebook": "https://www.facebook.com/calmacferries",
      "id": 1,
      "international_number": "+44 1475 650 397",
      "local_number": "0800 066 5000",
      "name": "Caledonian MacBrayne",
      "website": "https://calmac.co.uk/",
      "x": "https://x.com/calmacferries"
    },
    "route": "Largs - Cumbrae Slip (Millport)",
    "scheduled_departures_available": true,
    "service_id": 7,
    "status": -99,
    "updated": "1970-01-01T00:00:00Z",
    "vessels": [],
    "disruption_reason": null,
    "last_updated_date": null
  },
  {
    "additional_info": null,
    "area": "Eday",
    "locations": [
      {
        "id": 81,
        "latitude": 59.248702844714344,
        "longitude": -2.858451682387489,
        "name": "Rapness"
      },
      {
        "id": 80,
        "latitude": 59.190785969770495,
        "longitude": -2.6964419915877955,
        "name": "Sanday"
      },
      {
        "id": 79,
        "latitude": 59.14267302491262,
        "longitude": -2.597842732772849,
        "name": "Stronsay"
      },
      {
        "id": 78,
        "latitude": 59.15554743669383,
        "longitude": -2.7473148574977544,
        "name": "Eday"
      },
      {
        "id": 77,
        "latitude": 58.98646780169982,
        "longitude": -2.9603495092811527,
        "name": "Kirkwall"
      }
    ],
    "operator": {
      "email": "info@orkneyferries.co.uk",
      "facebook": "https://www.facebook.com/OrkneyFerriesLtd/",
      "id": 5,
      "international_number": "+44 1856 872044",
      "local_number": "01856 872044",
      "name": "Orkney Ferries",
      "website": "https://www.orkneyferries.co.uk/",
      "x": "https://twitter.com/OrkneyFerries"
    },
    "route": "Kirkwall - Eday - Stronsay - Sanday - Rapness",
    "scheduled_departures_available": true,
    "service_id": 4000,
    "status": -99,
    "updated": "1970-01-01T00:00:00Z",
    "vessels": [],
    "disruption_reason": null,
    "last_updated_date": null
  },
  {
    "additional_info": null,
    "area": "Eriskay",
    "locations": [
      {
        "id": 18,
        "latitude": 57.07091,
        "longitude": -7.30825,
        "name": "Eriskay"
      },
      {
        "id": 17,
        "latitude": 57.0084,
        "longitude": -7.40475,
        "name": "Barra"
      }
    ],
    "operator": {
      "email": "enquiries@calmac.co.uk",
      "facebook": "https://www.facebook.com/calmacferries",
      "id": 1,
      "international_number": "+44 1475 650 397",
      "local_number": "0800 066 5000",
      "name": "Caledonian MacBrayne",
      "website": "https://calmac.co.uk/",
      "x": "https://x.com/calmacferries"
    },
    "route": "Ardmhor (Barra) - Eriskay",
    "scheduled_departures_available": true,
    "service_id": 21,
    "status": -99,
    "updated": "1970-01-01T00:00:00Z",
    "vessels": [],
    "disruption_reason": null,
    "last_updated_date": null
  },
  {
    "additional_info": null,
    "area": "Gigha",
    "locations": [
      {
        "id": 31,
        "latitude": 55.678637,
        "longitude": -5.733597,
        "name": "Gigha"
      },
      {
        "id": 30,
        "latitude": 55.65755,
        "longitude": -5.6691,
        "name": "Tayinloan"
      }
    ],
    "operator": {
      "email": "enquiries@calmac.co.uk",
      "facebook": "https://www.facebook.com/calmacferries",
      "id": 1,
      "international_number": "+44 1475 650 397",
      "local_number": "0800 066 5000",
      "name": "Caledonian MacBrayne",
      "website": "https://calmac.co.uk/",
      "x": "https://x.com/calmacferries"
    },
    "route": "Tayinloan - Gigha",
    "scheduled_departures_available": true,
    "service_id": 8,
    "status": -99,
    "updated": "1970-01-01T00:00:00Z",
    "vessels": [],
    "disruption_reason": null,
    "last_updated_date": null
  },
  {
    "additional_info": null,
    "area": "Graemsay",
    "locations": [
      {
        "id": 60,
        "latitude": 58.96421632953152,
        "longitude": -3.2954037645564296,
        "name": "Stromness"
      },
      {
        "id": 86,
        "latitude": 58.916302446449635,
        "longitude": -3.3118362066164497,
        "name": "Hoy"
      },
      {
        "id": 85,
        "latitude": 58.93119306928956,
        "longitude": -3.2672566315248606,
        "name": "Graemsay"
      }
    ],
    "operator": {
      "email": "info@orkneyferries.co.uk",
      "facebook": "https://www.facebook.com/OrkneyFerriesLtd/",
      "id": 5,
      "international_number": "+44 1856 872044",
      "local_number": "01856 872044",
      "name": "Orkney Ferries",
      "website": "https://www.orkneyferries.co.uk/",
      "x": "https://twitter.com/OrkneyFerries"
    },
    "route": "Stromness - Graemsay - Hoy",
    "scheduled_departures_available": true,
    "service_id": 4005,
    "status": -99,
    "updated": "1970-01-01T00:00:00Z",
    "vessels": [],
    "disruption_reason": null,
    "last_updated_date": null
  },
  {
    "additional_info": null,
    "area": "Harris",
    "locations": [
      {
        "id": 41,
        "latitude": 57.76654,
        "longitude": -7.025258,
        "name": "Leverburgh"
      },
      {
        "id": 40,
        "latitude": 57.702302,
        "longitude": -7.180422,
        "name": "Berneray"
      }
    ],
    "operator": {
      "email": "enquiries@calmac.co.uk",
      "facebook": "https://www.facebook.com/calmacferries",
      "id": 1,
      "international_number": "+44 1475 650 397",
      "local_number": "0800 066 5000",
      "name": "Caledonian MacBrayne",
      "website": "https://calmac.co.uk/",
      "x": "https://x.com/calmacferries"
    },
    "route": "Berneray - Leverburgh",
    "scheduled_departures_available": true,
    "service_id": 23,
    "status": -99,
    "updated": "1970-01-01T00:00:00Z",
    "vessels": [],
    "disruption_reason": null,
    "last_updated_date": null
  },
  {
    "additional_info": null,
    "area": "Harris",
    "locations": [
      {
        "id": 33,
        "latitude": 57.896848,
        "longitude": -6.798668,
        "name": "Tarbert"
      },
      {
        "id": 32,
        "latitude": 57.58634,
        "longitude": -6.376447,
        "name": "Uig"
      }
    ],
    "operator": {
      "email": "enquiries@calmac.co.uk",
      "facebook": "https://www.facebook.com/calmacferries",
      "id": 1,
      "international_number": "+44 1475 650 397",
      "local_number": "0800 066 5000",
      "name": "Caledonian MacBrayne",
      "website": "https://calmac.co.uk/",
      "x": "https://x.com/calmacferries"
    },
    "route": "Uig - Tarbert",
    "scheduled_departures_available": true,
    "service_id": 24,
    "status": -99,
    "updated": "1970-01-01T00:00:00Z",
    "vessels": [],
    "disruption_reason": null,
    "last_updated_date": null
  },
  {
    "additional_info": null,
    "area": "Houton",
    "locations": [
      {
        "id": 90,
        "latitude": 58.80042265386166,
        "longitude": -3.207042537317379,
        "name": "Longhope"
      },
      {
        "id": 89,
        "latitude": 58.83353714926902,
        "longitude": -3.191641626189918,
        "name": "Lyness"
      },
      {
        "id": 88,
        "latitude": 58.83807286115842,
        "longitude": -3.1282277823106046,
        "name": "Flotta"
      },
      {
        "id": 87,
        "latitude": 58.917335897314416,
        "longitude": -3.1838163644115665,
        "name": "Houton"
      }
    ],
    "operator": {
      "email": "info@orkneyferries.co.uk",
      "facebook": "https://www.facebook.com/OrkneyFerriesLtd/",
      "id": 5,
      "international_number": "+44 1856 872044",
      "local_number": "01856 872044",
      "name": "Orkney Ferries",
      "website": "https://www.orkneyferries.co.uk/",
      "x": "https://twitter.com/OrkneyFerries"
    },
    "route": "Houton - Flotta - Lyness - Longhope",
    "scheduled_departures_available": true,
    "service_id": 4006,
    "status": -99,
    "updated": "1970-01-01T00:00:00Z",
    "vessels": [],
    "disruption_reason": null,
    "last_updated_date": null
  },
  {
    "additional_info": null,
    "area": "Iona",
    "locations": [
      {
        "id": 35,
        "latitude": 56.330225,
        "longitude": -6.392257,
        "name": "Iona"
      },
      {
        "id": 34,
        "latitude": 56.325611,
        "longitude": -6.369403,
        "name": "Fionnphort"
      }
    ],
    "operator": {
      "email": "enquiries@calmac.co.uk",
      "facebook": "https://www.facebook.com/calmacferries",
      "id": 1,
      "international_number": "+44 1475 650 397",
      "local_number": "0800 066 5000",
      "name": "Caledonian MacBrayne",
      "website": "https://calmac.co.uk/",
      "x": "https://x.com/calmacferries"
    },
    "route": "Fionnphort - Iona",
    "scheduled_departures_available": true,
    "service_id": 13,
    "status": -99,
    "updated": "1970-01-01T00:00:00Z",
    "vessels": [],
    "disruption_reason": null,
    "last_updated_date": null
  },
  {
    "additional_info": null,
    "area": "Islay",
    "locations": [
      {
        "id": 26,
        "latitude": 56.06858,
        "longitude": -6.18819,
        "name": "Colonsay"
      },
      {
        "id": 19,
        "latitude": 56.41158,
        "longitude": -5.47725,
        "name": "Oban"
      },
      {
        "id": 36,
        "latitude": 55.62781,
        "longitude": -6.18981,
        "name": "Port Ellen"
      },
      {
        "id": 28,
        "latitude": 55.8067,
        "longitude": -5.4834,
        "name": "Kennacraig"
      },
      {
        "id": 27,
        "latitude": 55.847707,
        "longitude": -6.105102,
        "name": "Port Askaig"
      }
    ],
    "operator": {
      "email": "enquiries@calmac.co.uk",
      "facebook": "https://www.facebook.com/calmacferries",
      "id": 1,
      "international_number": "+44 1475 650 397",
      "local_number": "0800 066 5000",
      "name": "Caledonian MacBrayne",
      "website": "https://calmac.co.uk/",
      "x": "https://x.com/calmacferries"
    },
    "route": "Kennacraig - Port Askaig (Islay) / Port Ellen (Islay)",
    "scheduled_departures_available": true,
    "service_id": 9,
    "status": -99,
    "updated": "1970-01-01T00:00:00Z",
    "vessels": [],
    "disruption_reason": null,
    "last_updated_date": null
  },
  {
    "additional_info": null,
    "area": "Kerrera",
    "locations": [
      {
        "id": 55,
        "latitude": 56.399859,
        "longitude": -5.517498,
        "name": "Kerrera"
      },
      {
        "id": 54,
        "latitude": 56.396995,
        "longitude": -5.510373,
        "name": "Gallanach"
      }
    ],
    "operator": {
      "email": "enquiries@calmac.co.uk",
      "facebook": "https://www.facebook.com/calmacferries",
      "id": 1,
      "international_number": "+44 1475 650 397",
      "local_number": "0800 066 5000",
      "name": "Caledonian MacBrayne",
      "website": "https://calmac.co.uk/",
      "x": "https://x.com/calmacferries"
    },
    "route": "Gallanach-Kerrera",
    "scheduled_departures_available": true,
    "service_id": 38,
    "status": -99,
    "updated": "1970-01-01T00:00:00Z",
    "vessels": [],
    "disruption_reason": null,
    "last_updated_date": null
  },
  {
    "additional_info": null,
    "area": "Kilcreggan",
    "locations": [
      {
        "id": 58,
        "latitude": 55.984704635223416,
        "longitude": -4.820426740646081,
        "name": "Kilcreggan"
      },
      {
        "id": 56,
        "latitude": 55.959938,
        "longitude": -4.814372,
        "name": "Gourock"
      }
    ],
    "operator": {
      "email": "enquiries@calmac.co.uk",
      "facebook": "https://www.facebook.com/calmacferries",
      "id": 1,
      "international_number": "+44 1475 650 397",
      "local_number": "0800 066 5000",
      "name": "Caledonian MacBrayne",
      "website": "https://calmac.co.uk/",
      "x": "https://x.com/calmacferries"
    },
    "route": "Gourock - Kilcreggan",
    "scheduled_departures_available": true,
    "service_id": 39,
    "status": -99,
    "updated": "1970-01-01T00:00:00Z",
    "vessels": [],
    "disruption_reason": null,
    "last_updated_date": null
  },
  {
    "additional_info": null,
    "area": "Lewis",
    "locations": [
      {
        "id": 10,
        "latitude": 57.894939,
        "longitude": -5.160442,
        "name": "Ullapool"
      },
      {
        "id": 9,
        "latitude": 58.206822,
        "longitude": -6.386586,
        "name": "Stornoway"
      }
    ],
    "operator": {
      "email": "enquiries@calmac.co.uk",
      "facebook": "https://www.facebook.com/calmacferries",
      "id": 1,
      "international_number": "+44 1475 650 397",
      "local_number": "0800 066 5000",
      "name": "Caledonian MacBrayne",
      "website": "https://calmac.co.uk/",
      "x": "https://x.com/calmacferries"
    },
    "route": "Freight Ullapool - Stornoway",
    "scheduled_departures_available": false,
    "service_id": 35,
    "status": -99,
    "updated": "1970-01-01T00:00:00Z",
    "vessels": [],
    "disruption_reason": null,
    "last_updated_date": null
  },
  {
    "additional_info": null,
    "area": "Lewis",
    "locations": [
      {
        "id": 10,
        "latitude": 57.894939,
        "longitude": -5.160442,
        "name": "Ullapool"
      },
      {
        "id": 9,
        "latitude": 58.206822,
        "longitude": -6.386586,
        "name": "Stornoway"
      }
    ],
    "operator": {
      "email": "enquiries@calmac.co.uk",
      "facebook": "https://www.facebook.com/calmacferries",
      "id": 1,
      "international_number": "+44 1475 650 397",
      "local_number": "0800 066 5000",
      "name": "Caledonian MacBrayne",
      "website": "https://calmac.co.uk/",
      "x": "https://x.com/calmacferries"
    },
    "route": "Ullapool - Stornoway",
    "scheduled_departures_available": true,
    "service_id": 25,
    "status": -99,
    "updated": "1970-01-01T00:00:00Z",
    "vessels": [],
    "disruption_reason": null,
    "last_updated_date": null
  },
  {
    "additional_info": null,
    "area": "Lismore",
    "locations": [
      {
        "id": 37,
        "latitude": 56.511159,
        "longitude": -5.492068,
        "name": "Lismore"
      },
      {
        "id": 19,
        "latitude": 56.41158,
        "longitude": -5.47725,
        "name": "Oban"
      }
    ],
    "operator": {
      "email": "enquiries@calmac.co.uk",
      "facebook": "https://www.facebook.com/calmacferries",
      "id": 1,
      "international_number": "+44 1475 650 397",
      "local_number": "0800 066 5000",
      "name": "Caledonian MacBrayne",
      "website": "https://calmac.co.uk/",
      "x": "https://x.com/calmacferries"
    },
    "route": "Oban - Lismore",
    "scheduled_departures_available": true,
    "service_id": 15,
    "status": -99,
    "updated": "1970-01-01T00:00:00Z",
    "vessels": [],
    "disruption_reason": null,
    "last_updated_date": null
  },
  {
    "additional_info": null,
    "area": "Morvern and Ardnamurchan",
    "locations": [
      {
        "id": 14,
        "latitude": 56.68855,
        "longitude": -6.09396,
        "name": "Kilchoan"
      },
      {
        "id": 13,
        "latitude": 56.6233,
        "longitude": -6.06334,
        "name": "Tobermory"
      }
    ],
    "operator": {
      "email": "enquiries@calmac.co.uk",
      "facebook": "https://www.facebook.com/calmacferries",
      "id": 1,
      "international_number": "+44 1475 650 397",
      "local_number": "0800 066 5000",
      "name": "Caledonian MacBrayne",
      "website": "https://calmac.co.uk/",
      "x": "https://x.com/calmacferries"
    },
    "route": "Tobermory - Kilchoan",
    "scheduled_departures_available": true,
    "service_id": 14,
    "status": -99,
    "updated": "1970-01-01T00:00:00Z",
    "vessels": [],
    "disruption_reason": null,
    "last_updated_date": null
  },
  {
    "additional_info": null,
    "area": "Mull",
    "locations": [
      {
        "id": 51,
        "latitude": 56.51472,
        "longitude": -5.81032,
        "name": "Fishnish"
      },
      {
        "id": 50,
        "latitude": 56.53666,
        "longitude": -5.77502,
        "name": "Lochaline"
      }
    ],
    "operator": {
      "email": "enquiries@calmac.co.uk",
      "facebook": "https://www.facebook.com/calmacferries",
      "id": 1,
      "international_number": "+44 1475 650 397",
      "local_number": "0800 066 5000",
      "name": "Caledonian MacBrayne",
      "website": "https://calmac.co.uk/",
      "x": "https://x.com/calmacferries"
    },
    "route": "Lochaline - Fishnish",
    "scheduled_departures_available": true,
    "service_id": 12,
    "status": -99,
    "updated": "1970-01-01T00:00:00Z",
    "vessels": [],
    "disruption_reason": null,
    "last_updated_date": null
  },
  {
    "additional_info": null,
    "area": "Mull",
    "locations": [
      {
        "id": 38,
        "latitude": 56.47074,
        "longitude": -5.70629,
        "name": "Craignure"
      },
      {
        "id": 19,
        "latitude": 56.41158,
        "longitude": -5.47725,
        "name": "Oban"
      }
    ],
    "operator": {
      "email": "enquiries@calmac.co.uk",
      "facebook": "https://www.facebook.com/calmacferries",
      "id": 1,
      "international_number": "+44 1475 650 397",
      "local_number": "0800 066 5000",
      "name": "Caledonian MacBrayne",
      "website": "https://calmac.co.uk/",
      "x": "https://x.com/calmacferries"
    },
    "route": "Oban - Craignure",
    "scheduled_departures_available": true,
    "service_id": 11,
    "status": -99,
    "updated": "1970-01-01T00:00:00Z",
    "vessels": [],
    "disruption_reason": null,
    "last_updated_date": null
  },
  {
    "additional_info": null,
    "area": "North Uist",
    "locations": [
      {
        "id": 10,
        "latitude": 57.894939,
        "longitude": -5.160442,
        "name": "Ullapool"
      },
      {
        "id": 33,
        "latitude": 57.896848,
        "longitude": -6.798668,
        "name": "Tarbert"
      },
      {
        "id": 39,
        "latitude": 57.596518,
        "longitude": -7.157672,
        "name": "Lochmaddy"
      },
      {
        "id": 32,
        "latitude": 57.58634,
        "longitude": -6.376447,
        "name": "Uig"
      }
    ],
    "operator": {
      "email": "enquiries@calmac.co.uk",
      "facebook": "https://www.facebook.com/calmacferries",
      "id": 1,
      "international_number": "+44 1475 650 397",
      "local_number": "0800 066 5000",
      "name": "Caledonian MacBrayne",
      "website": "https://calmac.co.uk/",
      "x": "https://x.com/calmacferries"
    },
    "route": "Uig - Lochmaddy",
    "scheduled_departures_available": true,
    "service_id": 22,
    "status": -99,
    "updated": "1970-01-01T00:00:00Z",
    "vessels": [],
    "disruption_reason": null,
    "last_updated_date": null
  },
  {
    "additional_info": null,
    "area": "Orkney & Shetland",
    "locations": [
      {
        "id": 63,
        "latitude": 60.16270380403575,
        "longitude": -1.1589239389948884,
        "name": "Lerwick"
      },
      {
        "id": 62,
        "latitude": 58.99989823953207,
        "longitude": -2.9742511887813246,
        "name": "Kirkwall"
      },
      {
        "id": 61,
        "latitude": 57.145172030019346,
        "longitude": -2.091230925036305,
        "name": "Aberdeen"
      },
      {
        "id": 60,
        "latitude": 58.96421632953152,
        "longitude": -3.2954037645564296,
        "name": "Stromness"
      },
      {
        "id": 59,
        "latitude": 58.61252430922174,
        "longitude": -3.545534457670658,
        "name": "Scrabster"
      }
    ],
    "operator": {
      "email": "reservations@northlinkferries.co.uk",
      "facebook": "https://www.facebook.com/NorthLinkFerries/",
      "id": 2,
      "international_number": "+44 1856 885 500",
      "local_number": "0800 111 4422",
      "name": "NorthLink Ferries",
      "website": "https://www.northlinkferries.co.uk",
      "x": "https://x.com/NLFerries"
    },
    "route": "Scrabster - Stromness / Aberdeen - Kirkwall - Lerwick",
    "scheduled_departures_available": true,
    "service_id": 1000,
    "status": -99,
    "updated": "1970-01-01T00:00:00Z",
    "vessels": [],
    "disruption_reason": null,
    "last_updated_date": null
  },
  {
    "area": "Pentland Firth",
    "locations": [
      {
        "id": 99,
        "latitude": 58.832021233320255,
        "longitude": -2.9622400477352535,
        "name": "St Margaret's Hope"
      },
      {
        "id": 98,
        "latitude": 58.63917534851306,
        "longitude": -3.1614340648459605,
        "name": "Gills Bay"
      }
    ],
    "operator": {
      "email": "sales@pentlandferries.co.uk",
      "id": 6,
      "international_number": "+44 1856 831226",
      "local_number": "01856 831226",
      "name": "Pentland Ferries",
      "website": "https://pentlandferries.co.uk/"
    },
    "route": "Gills Bay - St Margaret's Hope",
    "scheduled_departures_available": true,
    "service_id": 5000,
    "status": -99,
    "updated": "1970-01-01T00:00:00Z",
    "vessels": [],
    "additional_info": null,
    "disruption_reason": null,
    "last_updated_date": null
  },
  {
    "additional_info": null,
    "area": "Pierowall - Papa Westray",
    "locations": [
      {
        "id": 96,
        "latitude": 59.32685487460761,
        "longitude": -2.8915579942483736,
        "name": "Papa Westray"
      },
      {
        "id": 95,
        "latitude": 59.3232945827641,
        "longitude": -2.9746761333592557,
        "name": "Pierowall"
      }
    ],
    "operator": {
      "email": "info@orkneyferries.co.uk",
      "facebook": "https://www.facebook.com/OrkneyFerriesLtd/",
      "id": 5,
      "international_number": "+44 1856 872044",
      "local_number": "01856 872044",
      "name": "Orkney Ferries",
      "website": "https://www.orkneyferries.co.uk/",
      "x": "https://twitter.com/OrkneyFerries"
    },
    "route": "Westray Pierowall - Papa Westray",
    "scheduled_departures_available": true,
    "service_id": 4008,
    "status": -99,
    "updated": "1970-01-01T00:00:00Z",
    "vessels": [],
    "disruption_reason": null,
    "last_updated_date": null
  },
  {
    "additional_info": null,
    "area": "Raasay",
    "locations": [
      {
        "id": 43,
        "latitude": 57.351034,
        "longitude": -6.082454,
        "name": "Raasay"
      },
      {
        "id": 42,
        "latitude": 57.313967,
        "longitude": -6.110329,
        "name": "Sconser"
      }
    ],
    "operator": {
      "email": "enquiries@calmac.co.uk",
      "facebook": "https://www.facebook.com/calmacferries",
      "id": 1,
      "international_number": "+44 1475 650 397",
      "local_number": "0800 066 5000",
      "name": "Caledonian MacBrayne",
      "website": "https://calmac.co.uk/",
      "x": "https://x.com/calmacferries"
    },
    "route": "Sconser - Raasay",
    "scheduled_departures_available": true,
    "service_id": 17,
    "status": -99,
    "updated": "1970-01-01T00:00:00Z",
    "vessels": [],
    "disruption_reason": null,
    "last_updated_date": null
  },
  {
    "additional_info": null,
    "area": "Rousay, Egilsay & Wyre",
    "locations": [
      {
        "id": 94,
        "latitude": 59.15580615476281,
        "longitude": -2.942737599063998,
        "name": "Egilsay"
      },
      {
        "id": 93,
        "latitude": 59.08867039132888,
        "longitude": -3.0434806516423203,
        "name": "Tingwall"
      },
      {
        "id": 92,
        "latitude": 59.13061386489054,
        "longitude": -2.9861748085213837,
        "name": "Rousay"
      },
      {
        "id": 91,
        "latitude": 59.12483221195805,
        "longitude": -2.9724840291593946,
        "name": "Wyre"
      }
    ],
    "operator": {
      "email": "info@orkneyferries.co.uk",
      "facebook": "https://www.facebook.com/OrkneyFerriesLtd/",
      "id": 5,
      "international_number": "+44 1856 872044",
      "local_number": "01856 872044",
      "name": "Orkney Ferries",
      "website": "https://www.orkneyferries.co.uk/",
      "x": "https://twitter.com/OrkneyFerries"
    },
    "route": "Tingwall - Rousay - Egilsay - Wyre",
    "scheduled_departures_available": true,
    "service_id": 4007,
    "status": -99,
    "updated": "1970-01-01T00:00:00Z",
    "vessels": [],
    "disruption_reason": null,
    "last_updated_date": null
  },
  {
    "additional_info": null,
    "area": "Sanday",
    "locations": [
      {
        "id": 81,
        "latitude": 59.248702844714344,
        "longitude": -2.858451682387489,
        "name": "Rapness"
      },
      {
        "id": 80,
        "latitude": 59.190785969770495,
        "longitude": -2.6964419915877955,
        "name": "Sanday"
      },
      {
        "id": 79,
        "latitude": 59.14267302491262,
        "longitude": -2.597842732772849,
        "name": "Stronsay"
      },
      {
        "id": 78,
        "latitude": 59.15554743669383,
        "longitude": -2.7473148574977544,
        "name": "Eday"
      },
      {
        "id": 77,
        "latitude": 58.98646780169982,
        "longitude": -2.9603495092811527,
        "name": "Kirkwall"
      }
    ],
    "operator": {
      "email": "info@orkneyferries.co.uk",
      "facebook": "https://www.facebook.com/OrkneyFerriesLtd/",
      "id": 5,
      "international_number": "+44 1856 872044",
      "local_number": "01856 872044",
      "name": "Orkney Ferries",
      "website": "https://www.orkneyferries.co.uk/",
      "x": "https://twitter.com/OrkneyFerries"
    },
    "route": "Kirkwall - Eday - Stronsay - Sanday - Rapness",
    "scheduled_departures_available": true,
    "service_id": 4001,
    "status": -99,
    "updated": "1970-01-01T00:00:00Z",
    "vessels": [],
    "disruption_reason": null,
    "last_updated_date": null
  },
  {
    "additional_info": null,
    "area": "Shapinsay",
    "locations": [
      {
        "id": 83,
        "latitude": 59.031464993313435,
        "longitude": -2.9095489932332796,
        "name": "Shapinsay"
      },
      {
        "id": 82,
        "latitude": 58.98530772397149,
        "longitude": -2.9604274613197075,
        "name": "Kirkwall Shapinsay"
      }
    ],
    "operator": {
      "email": "info@orkneyferries.co.uk",
      "facebook": "https://www.facebook.com/OrkneyFerriesLtd/",
      "id": 5,
      "international_number": "+44 1856 872044",
      "local_number": "01856 872044",
      "name": "Orkney Ferries",
      "website": "https://www.orkneyferries.co.uk/",
      "x": "https://twitter.com/OrkneyFerries"
    },
    "route": "Kirkwall - Shapinsay",
    "scheduled_departures_available": true,
    "service_id": 4004,
    "status": -99,
    "updated": "1970-01-01T00:00:00Z",
    "vessels": [],
    "disruption_reason": null,
    "last_updated_date": null
  },
  {
    "additional_info": null,
    "area": "Skerries",
    "locations": [
      {
        "id": 76,
        "latitude": 60.37282293039965,
        "longitude": -1.1293572113730086,
        "name": "Vidlin"
      },
      {
        "id": 75,
        "latitude": 60.42273340335759,
        "longitude": -0.7511959108313978,
        "name": "Skerries"
      },
      {
        "id": 74,
        "latitude": 60.34191010787282,
        "longitude": -1.028640592585364,
        "name": "Symbister"
      },
      {
        "id": 73,
        "latitude": 60.352141839514786,
        "longitude": -1.1702833067214111,
        "name": "Laxo"
      },
      {
        "id": 71,
        "latitude": 60.15592026531444,
        "longitude": -1.1427881939348081,
        "name": "Lerwick"
      }
    ],
    "operator": {
      "email": "ferries@shetland.gov.uk",
      "facebook": "https://www.facebook.com/ShetlandIslandsCouncil/",
      "id": 4,
      "local_number": "01806 244200",
      "name": "Shetland Ferries",
      "website": "https://www.shetland.gov.uk/ferries",
      "x": "https://twitter.com/ShetIslandsCll"
    },
    "route": "Laxo - Symbister - Skerries - Vidlin - Lerwick",
    "scheduled_departures_available": true,
    "service_id": 3004,
    "status": -99,
    "updated": "1970-01-01T00:00:00Z",
    "vessels": [],
    "disruption_reason": null,
    "last_updated_date": null
  },
  {
    "additional_info": null,
    "area": "Skye",
    "locations": [
      {
        "id": 45,
        "latitude": 57.064596,
        "longitude": -5.894743,
        "name": "Armadale"
      },
      {
        "id": 44,
        "latitude": 57.006834,
        "longitude": -5.828069,
        "name": "Mallaig"
      }
    ],
    "operator": {
      "email": "enquiries@calmac.co.uk",
      "facebook": "https://www.facebook.com/calmacferries",
      "id": 1,
      "international_number": "+44 1475 650 397",
      "local_number": "0800 066 5000",
      "name": "Caledonian MacBrayne",
      "website": "https://calmac.co.uk/",
      "x": "https://x.com/calmacferries"
    },
    "route": "Mallaig - Armadale",
    "scheduled_departures_available": true,
    "service_id": 18,
    "status": -99,
    "updated": "1970-01-01T00:00:00Z",
    "vessels": [],
    "disruption_reason": null,
    "last_updated_date": null
  },
  {
    "additional_info": null,
    "area": "South Uist",
    "locations": [
      {
        "id": 44,
        "latitude": 57.006834,
        "longitude": -5.828069,
        "name": "Mallaig"
      },
      {
        "id": 21,
        "latitude": 57.152201,
        "longitude": -7.303969,
        "name": "Lochboisdale"
      }
    ],
    "operator": {
      "email": "enquiries@calmac.co.uk",
      "facebook": "https://www.facebook.com/calmacferries",
      "id": 1,
      "international_number": "+44 1475 650 397",
      "local_number": "0800 066 5000",
      "name": "Caledonian MacBrayne",
      "website": "https://calmac.co.uk/",
      "x": "https://x.com/calmacferries"
    },
    "route": "Mallaig / Oban - Lochboisdale",
    "scheduled_departures_available": true,
    "service_id": 37,
    "status": -99,
    "updated": "1970-01-01T00:00:00Z",
    "vessels": [],
    "disruption_reason": null,
    "last_updated_date": null
  },
  {
    "additional_info": null,
    "area": "Stronsay",
    "locations": [
      {
        "id": 81,
        "latitude": 59.248702844714344,
        "longitude": -2.858451682387489,
        "name": "Rapness"
      },
      {
        "id": 80,
        "latitude": 59.190785969770495,
        "longitude": -2.6964419915877955,
        "name": "Sanday"
      },
      {
        "id": 79,
        "latitude": 59.14267302491262,
        "longitude": -2.597842732772849,
        "name": "Stronsay"
      },
      {
        "id": 78,
        "latitude": 59.15554743669383,
        "longitude": -2.7473148574977544,
        "name": "Eday"
      },
      {
        "id": 77,
        "latitude": 58.98646780169982,
        "longitude": -2.9603495092811527,
        "name": "Kirkwall"
      }
    ],
    "operator": {
      "email": "info@orkneyferries.co.uk",
      "facebook": "https://www.facebook.com/OrkneyFerriesLtd/",
      "id": 5,
      "international_number": "+44 1856 872044",
      "local_number": "01856 872044",
      "name": "Orkney Ferries",
      "website": "https://www.orkneyferries.co.uk/",
      "x": "https://twitter.com/OrkneyFerries"
    },
    "route": "Kirkwall - Eday - Stronsay - Sanday - Rapness",
    "scheduled_departures_available": true,
    "service_id": 4002,
    "status": -99,
    "updated": "1970-01-01T00:00:00Z",
    "vessels": [],
    "disruption_reason": null,
    "last_updated_date": null
  },
  {
    "additional_info": null,
    "area": "Tiree",
    "locations": [
      {
        "id": 25,
        "latitude": 56.508324,
        "longitude": -6.798924,
        "name": "Tiree"
      },
      {
        "id": 24,
        "latitude": 56.615059,
        "longitude": -6.524241,
        "name": "Coll"
      },
      {
        "id": 19,
        "latitude": 56.41158,
        "longitude": -5.47725,
        "name": "Oban"
      }
    ],
    "operator": {
      "email": "enquiries@calmac.co.uk",
      "facebook": "https://www.facebook.com/calmacferries",
      "id": 1,
      "international_number": "+44 1475 650 397",
      "local_number": "0800 066 5000",
      "name": "Caledonian MacBrayne",
      "website": "https://calmac.co.uk/",
      "x": "https://x.com/calmacferries"
    },
    "route": "Oban - Coll/Tiree",
    "scheduled_departures_available": true,
    "service_id": 16,
    "status": -99,
    "updated": "1970-01-01T00:00:00Z",
    "vessels": [],
    "disruption_reason": null,
    "last_updated_date": null
  },
  {
    "additional_info": null,
    "area": "Westray",
    "locations": [
      {
        "id": 81,
        "latitude": 59.248702844714344,
        "longitude": -2.858451682387489,
        "name": "Rapness"
      },
      {
        "id": 80,
        "latitude": 59.190785969770495,
        "longitude": -2.6964419915877955,
        "name": "Sanday"
      },
      {
        "id": 79,
        "latitude": 59.14267302491262,
        "longitude": -2.597842732772849,
        "name": "Stronsay"
      },
      {
        "id": 78,
        "latitude": 59.15554743669383,
        "longitude": -2.7473148574977544,
        "name": "Eday"
      },
      {
        "id": 77,
        "latitude": 58.98646780169982,
        "longitude": -2.9603495092811527,
        "name": "Kirkwall"
      }
    ],
    "operator": {
      "email": "info@orkneyferries.co.uk",
      "facebook": "https://www.facebook.com/OrkneyFerriesLtd/",
      "id": 5,
      "international_number": "+44 1856 872044",
      "local_number": "01856 872044",
      "name": "Orkney Ferries",
      "website": "https://www.orkneyferries.co.uk/",
      "x": "https://twitter.com/OrkneyFerries"
    },
    "route": "Kirkwall - Eday - Stronsay - Sanday - Rapness",
    "scheduled_departures_available": true,
    "service_id": 4003,
    "status": -99,
    "updated": "1970-01-01T00:00:00Z",
    "vessels": [],
    "disruption_reason": null,
    "last_updated_date": null
  },
  {
    "additional_info": null,
    "area": "Whalsay",
    "locations": [
      {
        "id": 74,
        "latitude": 60.34191010787282,
        "longitude": -1.028640592585364,
        "name": "Symbister"
      },
      {
        "id": 73,
        "latitude": 60.352141839514786,
        "longitude": -1.1702833067214111,
        "name": "Laxo"
      }
    ],
    "operator": {
      "email": "ferries@shetland.gov.uk",
      "facebook": "https://www.facebook.com/ShetlandIslandsCouncil/",
      "id": 4,
      "local_number": "01806 244200",
      "name": "Shetland Ferries",
      "website": "https://www.shetland.gov.uk/ferries",
      "x": "https://twitter.com/ShetIslandsCll"
    },
    "route": "Laxo - Symbister",
    "scheduled_departures_available": true,
    "service_id": 3003,
    "status": -99,
    "updated": "1970-01-01T00:00:00Z",
    "vessels": [],
    "disruption_reason": null,
    "last_updated_date": null
  },
  {
    "additional_info": null,
    "area": "Yell",
    "locations": [
      {
        "id": 70,
        "latitude": 60.49638392192762,
        "longitude": -1.1585186085702022,
        "name": "Ulsta"
      },
      {
        "id": 69,
        "latitude": 60.46679304368115,
        "longitude": -1.2068379688066269,
        "name": "Toft"
      }
    ],
    "operator": {
      "email": "ferries@shetland.gov.uk",
      "facebook": "https://www.facebook.com/ShetlandIslandsCouncil/",
      "id": 4,
      "local_number": "01806 244200",
      "name": "Shetland Ferries",
      "website": "https://www.shetland.gov.uk/ferries",
      "x": "https://twitter.com/ShetIslandsCll"
    },
    "route": "Toft - Ulsta",
    "scheduled_departures_available": true,
    "service_id": 3001,
    "status": -99,
    "updated": "1970-01-01T00:00:00Z",
    "vessels": [],
    "disruption_reason": null,
    "last_updated_date": null
  }
]
